{
  "agencies": [
    {
      "name": "4-H Club Park and Planning",
      "address": "2411 Pinebrook Ave Hyattsville MD 20785",
      "phone": "",
      "hours": "Thursday: 10:00:00 to 12:00:00",
      "appointment_needed": "No",
      "requirements": "",
      "distribution_model": "",
      "notes": "",
      "cultures_served": [
        "East African,Latin American,West African"
      ]
    },
    {
      "name": "A Place for Hashem Ministries",
      "address": "8100 Malcolm Rd Clinton MD 20735",
      "phone": "",
      "hours": "Saturday: 09:00:00 to 12:00:00",
      "appointment_needed": "No",
      "requirements": "",
      "distribution_model": "",
      "notes": "",
      "cultures_served": [
        "East African,Latin American,Middle Eastern/ North African,West African"
      ]
    },
    {
      "name": "ABSYNA, Inc. - Brentwood",
      "address": "4142 Bunker Hill Rd Brentwood MD 20722",
      "phone": "(240) 374-8864",
      "hours": "Thursday: 06:30:00 to 18:00:00, 10:00:00 to 17:30:00",
      "appointment_needed": "No",
      "requirements": "",
      "distribution_model": "",
      "notes": "",
      "cultures_served": [
        "Central/South Asian,East Asian,Latin American"
      ]
    },
    {
      "name": "ACTS",
      "address": "3901 ACTS Lane Dumfries VA 22026",
      "phone": "(703) 441-8606",
      "hours": "Monday, Thursday: 09:00:00 to 11:30:00, 13:00:00 to 15:00:00; Tuesday: 13:00:00 to 15:30:00, 17:00:00 to 19:00:00",
      "appointment_needed": "No",
      "requirements": "ID,Zip Code",
      "distribution_model": "",
      "notes": "",
      "cultures_served": [
        "Central/South Asian,East African,East Asian,Eastern European,Latin American,Middle Eastern/ North African,West African"
      ]
    },
    {
      "name": "ADAMS CENTER",
      "address": "46903 Sugarland Road Sterling VA 20164",
      "phone": "(703) 501-7990",
      "hours": "Monday\u2013Sunday: 10:00:00 to 17:00:00",
      "appointment_needed": "Yes",
      "requirements": "",
      "distribution_model": "",
      "notes": "",
      "cultures_served": [
        "Central/South Asian,East African,East Asian,Eastern European,Latin American,Middle Eastern/ North African,West African"
      ]
    },
    {
      "name": "ALIVE",
      "address": "801 S Payne St Alexandria VA 22302",
      "phone": "(703) 837-9300",
      "hours": "Saturday: 08:30:00 to 10:30:00, 10:00:00 to 11:00:00",
      "appointment_needed": "No",
      "requirements": "",
      "distribution_model": "",
      "notes": "",
      "cultures_served": [
        "Central/South Asian,East African,Eastern European,Latin American,Middle Eastern/ North African"
      ]
    },
    {
      "name": "Academy of Hope",
      "address": "2315 18th Pl NE Washington DC 20018",
      "phone": "",
      "hours": "Wednesday: 12:00:00 to 14:00:00",
      "appointment_needed": "No",
      "requirements": "",
      "distribution_model": "",
      "notes": "",
      "cultures_served": [
        "East African,Latin American,West African"
      ]
    },
    {
      "name": "Adventist Community Services of Greater Washington",
      "address": "501 Sligo Avenue Silver Springs MD  20910",
      "phone": "(240) 793-5108",
      "hours": "Monday\u2013Thursday: 10:00:00 to 12:00:00",
      "appointment_needed": "Yes",
      "requirements": "ID",
      "distribution_model": "",
      "notes": "",
      "cultures_served": [
        "Central/South Asian,East African,East Asian,Eastern European,Latin American,Middle Eastern/ North African,West African"
      ]
    },
    {
      "name": "Agape Early Childhood Learning",
      "address": "4318 Rhode Island Avenue Brentwood MD 20722",
      "phone": "(301) 927-4674",
      "hours": "Wednesday: 15:00:00 to 17:30:00",
      "appointment_needed": "Yes",
      "requirements": "",
      "distribution_model": "",
      "notes": "",
      "cultures_served": [
        "Central/South Asian,East African,Latin American,Middle Eastern/ North African,West African"
      ]
    },
    {
      "name": "Alafia Baptist Church",
      "address": "3623 Eastern Avenue Mount Rainier MD 20712",
      "phone": "",
      "hours": "Thursday: 09:30:00 to 11:30:00",
      "appointment_needed": "No",
      "requirements": "",
      "distribution_model": "",
      "notes": "",
      "cultures_served": []
    },
    {
      "name": "Alexander Memorial Baptist Church",
      "address": "10675 Crain Highway Upper Marlboro MD 20772",
      "phone": "(240) 601-0247",
      "hours": "Sunday: 12:00:00 to 13:00:00; Saturday: 10:00:00 to 13:00:00",
      "appointment_needed": "No",
      "requirements": "Income",
      "distribution_model": "",
      "notes": "",
      "cultures_served": []
    },
    {
      "name": "Alexandria Food Pantry",
      "address": "725A Eisenhower Avenue ALEXANDRIA VA 22304",
      "phone": "(703) 719-8939",
      "hours": "Wednesday\u2013Thursday: 09:00:00 to 13:00:00",
      "appointment_needed": "No",
      "requirements": "ID",
      "distribution_model": "",
      "notes": "",
      "cultures_served": [
        "Central/South Asian,East African,East Asian,Eastern European,Latin American,Middle Eastern/ North African,West African"
      ]
    },
    {
      "name": "Allen Chapel AME Church",
      "address": "2498 Alabama Avenue SE Washington DC 20020",
      "phone": "(202) 494-9824",
      "hours": "Friday: 09:30:00 to 12:00:00",
      "appointment_needed": "No",
      "requirements": "ID",
      "distribution_model": "",
      "notes": "",
      "cultures_served": []
    },
    {
      "name": "Allen Chapel AME Church Outreach Ministry",
      "address": "2518 Fairland Road Silver Spring MD 20904",
      "phone": "(301) 404-2688",
      "hours": "Saturday: 08:00:00 to 10:00:00",
      "appointment_needed": "No",
      "requirements": "ID,Zip Code",
      "distribution_model": "",
      "notes": "",
      "cultures_served": [
        "East Asian,Latin American,West African"
      ]
    },
    {
      "name": "Ambassador Baptist Church",
      "address": "1408 Minnesota Ave SE Washington DC 20020",
      "phone": "",
      "hours": "Saturday: 08:00:00 to 10:00:00",
      "appointment_needed": "No",
      "requirements": "",
      "distribution_model": "",
      "notes": "",
      "cultures_served": [
        "East Asian,Latin American"
      ]
    },
    {
      "name": "American University",
      "address": "4400 Massachusetts Ave Washington  DC 20016",
      "phone": "(305) 766-5993",
      "hours": "Monday, Wednesday: 12:00:00 to 19:00:00; Friday: 11:00:00 to 16:00:00",
      "appointment_needed": "No",
      "requirements": "ID",
      "distribution_model": "",
      "notes": "",
      "cultures_served": []
    },
    {
      "name": "Annandale UMC",
      "address": "7901 Heritage Drive Annandale VA 22003",
      "phone": "(703) 217-2514",
      "hours": "Thursday: 16:00:00 to 18:30:00",
      "appointment_needed": "No",
      "requirements": "ID,Zip Code",
      "distribution_model": "",
      "notes": "",
      "cultures_served": [
        "Central/South Asian,East African,East Asian,Eastern European,Latin American,Middle Eastern/ North African,West African"
      ]
    },
    {
      "name": "Antioch Baptist Church of Clinton",
      "address": "9107 Pine View Lane Clinton MD 20735",
      "phone": "(301) 868-3877",
      "hours": "Friday: 14:00:00 to 17:00:00; Saturday: 10:00:00 to 13:00:00",
      "appointment_needed": "No",
      "requirements": "Zip Code",
      "distribution_model": "",
      "notes": "",
      "cultures_served": [
        "East African,East Asian,Eastern European,Latin American,West African"
      ]
    },
    {
      "name": "Apostolic Church Glorious Vision",
      "address": "3004 Enterprise Road Bowie MD 20721",
      "phone": "(757) 275-3905",
      "hours": "Saturday: 10:00:00 to 19:00:00; Sunday: 13:00:00 to 15:00:00",
      "appointment_needed": "No",
      "requirements": "Zip Code",
      "distribution_model": "",
      "notes": "",
      "cultures_served": [
        "Central/South Asian,East African,East Asian,Eastern European,Latin American,Middle Eastern/ North African,West African"
      ]
    },
    {
      "name": "Ark of Grace Mission, Inc",
      "address": "3311 Brightseat Road  Lanham MD 20706",
      "phone": "(240) 535-7832",
      "hours": "Friday: 12:00:00 to 16:00:00",
      "appointment_needed": "No",
      "requirements": "",
      "distribution_model": "",
      "notes": "",
      "cultures_served": [
        "East African,Latin American,Middle Eastern/ North African,West African"
      ]
    },
    {
      "name": "Arlington Bridge Builders",
      "address": "790 South Carlin Springs Road Arlington VA 22204",
      "phone": "(571) 282-5156",
      "hours": "Wednesday\u2013Thursday, Saturday: 10:00:00 to 15:00:00",
      "appointment_needed": "No",
      "requirements": "Zip Code",
      "distribution_model": "",
      "notes": "",
      "cultures_served": [
        "Central/South Asian,East African,Eastern European,Latin American,Middle Eastern/ North African,West African"
      ]
    },
    {
      "name": "Assumption Outreach",
      "address": "220 Highview Place SE  Washington DC 20032",
      "phone": "(202) 561-5941",
      "hours": "Monday, Wednesday, Friday: 09:00:00 to 12:00:00",
      "appointment_needed": "No",
      "requirements": "",
      "distribution_model": "",
      "notes": "",
      "cultures_served": []
    },
    {
      "name": "At Home Away from Home",
      "address": "1100 Dumfries Street Oxon Hill MD 20745",
      "phone": "(240) 398-1519",
      "hours": "Monday\u2013Sunday: 08:00:00 to 12:00:00",
      "appointment_needed": "No",
      "requirements": "Zip Code",
      "distribution_model": "",
      "notes": "",
      "cultures_served": []
    },
    {
      "name": "Atonement Food Pantry",
      "address": "5073 East Capitol Street SE Washington DC 20019",
      "phone": "(202) 251-7725",
      "hours": "Saturday: 09:00:00 to 13:00:00; Tuesday: 10:00:00 to 13:00:00; Wednesday: 16:00:00 to 19:00:00",
      "appointment_needed": "No",
      "requirements": "",
      "distribution_model": "",
      "notes": "",
      "cultures_served": []
    },
    {
      "name": "Ayuda, Inc.",
      "address": "1990 K St. NW Suite 500 Washington DC 20006",
      "phone": "(703) 589-4204",
      "hours": "Wednesday: 09:00:00 to 15:00:00",
      "appointment_needed": "No",
      "requirements": "ID",
      "distribution_model": "",
      "notes": "",
      "cultures_served": [
        "Central/South Asian,East African,East Asian,Eastern European,Latin American,Middle Eastern/ North African,West African"
      ]
    },
    {
      "name": "Barcroft Elementary School",
      "address": "700 S Buchanan St Arlington VA 22204",
      "phone": "",
      "hours": "Thursday: 15:00:00 to 17:00:00",
      "appointment_needed": "No",
      "requirements": "",
      "distribution_model": "",
      "notes": "",
      "cultures_served": [
        "Eastern European,Latin American,Middle Eastern/ North African"
      ]
    },
    {
      "name": "Beltsville Adventist Community Center",
      "address": "4200 Ammendale Rd. Beltsville MD 20705",
      "phone": "(301) 937-8119",
      "hours": "Friday: 10:30:00 to 13:30:00; Tuesday\u2013Wednesday: 09:00:00 to 14:00:00",
      "appointment_needed": "No",
      "requirements": "",
      "distribution_model": "",
      "notes": "",
      "cultures_served": [
        "Central/South Asian,East African,East Asian,Eastern European,Latin American,Middle Eastern/ North African,West African"
      ]
    },
    {
      "name": "Bethesda Cares",
      "address": "5033 Wilson Lane Bethesda MD 20814",
      "phone": "(301) 907-9244",
      "hours": "Monday\u2013Friday: 11:00:00 to 13:00:00",
      "appointment_needed": "No",
      "requirements": "",
      "distribution_model": "",
      "notes": "",
      "cultures_served": []
    },
    {
      "name": "Bethesda Help",
      "address": "10100 Old Georgetown Road Bethesda MD 20814",
      "phone": "(301) 928-4078",
      "hours": "Monday\u2013Friday: 09:00:00 to 16:30:00",
      "appointment_needed": "Yes",
      "requirements": "ID,Zip Code",
      "distribution_model": "",
      "notes": "",
      "cultures_served": [
        "Central/South Asian,East Asian,Latin American"
      ]
    },
    {
      "name": "Bethlehem Baptist Church",
      "address": "7836 Fordson Road Alexandria VA 22306",
      "phone": "(703) 867-6049",
      "hours": "Saturday: 12:00:00 to 14:00:00",
      "appointment_needed": "Yes",
      "requirements": "Zip Code",
      "distribution_model": "",
      "notes": "",
      "cultures_served": [
        "Central/South Asian,East Asian,Latin American,Middle Eastern/ North African,West African"
      ]
    },
    {
      "name": "Boat People SOS",
      "address": "6066 Leesburg Pike Falls Church VA 22041",
      "phone": "(703) 538-2190",
      "hours": "Friday: 14:00:00 to 16:00:00",
      "appointment_needed": "No",
      "requirements": "Income",
      "distribution_model": "",
      "notes": "",
      "cultures_served": []
    },
    {
      "name": "Bread & Fishes",
      "address": "3890 Cameron Street Dumfries Va 22026",
      "phone": "(240) 778-3764",
      "hours": "Tuesday: 17:00:00 to 18:00:00",
      "appointment_needed": "No",
      "requirements": "Zip Code",
      "distribution_model": "",
      "notes": "",
      "cultures_served": [
        "Eastern European,Latin American,Middle Eastern/ North African,West African"
      ]
    },
    {
      "name": "Bread For The City NW Center",
      "address": "1525 7th St. NW Washington DC 20001",
      "phone": "(202) 773-2308",
      "hours": "Monday\u2013Thursday: 09:00:00 to 15:00:00; Friday: 09:00:00 to 11:30:00",
      "appointment_needed": "No",
      "requirements": "ID,Zip Code",
      "distribution_model": "",
      "notes": "",
      "cultures_served": [
        "Central/South Asian,East African,East Asian,Eastern European,Latin American,Middle Eastern/ North African,West African"
      ]
    },
    {
      "name": "Bread for the City SE Center",
      "address": "1700 Good Hope Road SE Washington DC 20020",
      "phone": "(202) 773-2308",
      "hours": "Monday\u2013Thursday: 09:00:00 to 15:00:00; Friday: 09:00:00 to 11:30:00",
      "appointment_needed": "No",
      "requirements": "ID,Zip Code",
      "distribution_model": "",
      "notes": "",
      "cultures_served": [
        "Central/South Asian,East African,East Asian,Eastern European,Latin American,Middle Eastern/ North African,West African"
      ]
    },
    {
      "name": "Breath of Life SDA Church",
      "address": "11310 Fort Washington Road Fort Washington MD 20744",
      "phone": "(301) 292-2100",
      "hours": "Wednesday: 09:30:00 to 17:00:00",
      "appointment_needed": "No",
      "requirements": "ID,Zip Code",
      "distribution_model": "",
      "notes": "",
      "cultures_served": []
    },
    {
      "name": "Brighter Day Ministries Food Pantry",
      "address": "3209 5th Street SE Washington DC 20032",
      "phone": "(301) 806-4305",
      "hours": "Thursday: 11:00:00 to 14:00:00",
      "appointment_needed": "No",
      "requirements": "ID,Income",
      "distribution_model": "",
      "notes": "",
      "cultures_served": [
        "East Asian,West African"
      ]
    },
    {
      "name": "Brookland Senior Day Care Center, Inc.",
      "address": "6210 Chillum Place NW Washington DC 20011",
      "phone": "(302) 538-0813",
      "hours": "Tuesday: 12:30:00 to 13:30:00",
      "appointment_needed": "No",
      "requirements": "",
      "distribution_model": "",
      "notes": "",
      "cultures_served": []
    },
    {
      "name": "Brotherhood of the Cross and Star",
      "address": "6001 Georgia Ave NW Washington DC 20011",
      "phone": "",
      "hours": "Friday: 09:00:00 to 11:00:00",
      "appointment_needed": "No",
      "requirements": "",
      "distribution_model": "",
      "notes": "",
      "cultures_served": [
        "East African,Latin American,West African"
      ]
    },
    {
      "name": "Buddhist Tzu Chi Foundation",
      "address": "1516 Moorings Drive Reston VA 20190",
      "phone": "(804) 306-6037",
      "hours": "Saturday: 09:30:00 to 11:00:00",
      "appointment_needed": "No",
      "requirements": "ID,Income",
      "distribution_model": "",
      "notes": "",
      "cultures_served": [
        "East Asian,Latin American"
      ]
    },
    {
      "name": "Builders, Inc",
      "address": "5135 Marlboro Pike Capitol Heights MD 20743",
      "phone": "(202) 460-8011",
      "hours": "Saturday: 04:00:00 to 06:00:00",
      "appointment_needed": "No",
      "requirements": "ID,Income,Zip Code",
      "distribution_model": "",
      "notes": "",
      "cultures_served": [
        "Latin American"
      ]
    },
    {
      "name": "Bull Run Unitarian Universalists",
      "address": "9350 Main Street Manassas VA 20110",
      "phone": "(703) 361-6269",
      "hours": "Tuesday: 09:30:00 to 11:30:00",
      "appointment_needed": "Yes",
      "requirements": "",
      "distribution_model": "",
      "notes": "",
      "cultures_served": [
        "Latin American,Middle Eastern/ North African,West African"
      ]
    },
    {
      "name": "Burke United Methodist Church",
      "address": "6200 Burke Centre Parkway Burke VA 22015",
      "phone": "(703) 250-6100",
      "hours": "Thursday: 18:00:00 to 19:00:00; Tuesday: 13:00:00 to 14:00:00; Saturday: 09:00:00 to 10:00:00",
      "appointment_needed": "No",
      "requirements": "Zip Code",
      "distribution_model": "",
      "notes": "",
      "cultures_served": [
        "Central/South Asian,East African,East Asian,Latin American,Middle Eastern/ North African,West African"
      ]
    },
    {
      "name": "CAC Bethel Fellowship Church",
      "address": "7513 Northern Avenue Glenn Dale MD 20769",
      "phone": "(301) 352-2900",
      "hours": "Saturday: 09:00:00 to 15:00:00",
      "appointment_needed": "No",
      "requirements": "",
      "distribution_model": "",
      "notes": "",
      "cultures_served": [
        "East African,Latin American,West African"
      ]
    },
    {
      "name": "CAC Wosem- 24th Place",
      "address": "CAC Wosem DC- 24th 2130 24th Place NE Washington DC 20018",
      "phone": "(240) 643-6445",
      "hours": "Saturday: 12:00:00 to 14:00:00",
      "appointment_needed": "No",
      "requirements": "",
      "distribution_model": "",
      "notes": "",
      "cultures_served": [
        "West African"
      ]
    },
    {
      "name": "CFH Inc.",
      "address": "9021 Centreville Road Manassas VA 20110",
      "phone": "(571) 201-6226",
      "hours": "Tuesday: 15:00:00 to 17:00:00, 16:00:00 to 18:00:00; Thursday: 15:00:00 to 17:00:00",
      "appointment_needed": "Yes",
      "requirements": "Zip Code",
      "distribution_model": "",
      "notes": "",
      "cultures_served": []
    },
    {
      "name": "CMPGC - Belulah Baptist",
      "address": "6056 old central Ave Capitol Heights MD 20743",
      "phone": "",
      "hours": "Friday: 09:00:00 to 11:00:00",
      "appointment_needed": "No",
      "requirements": "",
      "distribution_model": "",
      "notes": "",
      "cultures_served": []
    },
    {
      "name": "CMPGC - New Craig",
      "address": "5305 Farmingdale Road Capitol Heights MD 20743",
      "phone": "",
      "hours": "Friday: 09:00:00 to 11:00:00",
      "appointment_needed": "No",
      "requirements": "",
      "distribution_model": "",
      "notes": "",
      "cultures_served": []
    },
    {
      "name": "CMPGC - Oxon Hill",
      "address": "7711 Livingston Road Oxon Hill MD 20745",
      "phone": "",
      "hours": "Friday: 09:00:00 to 11:00:00",
      "appointment_needed": "No",
      "requirements": "",
      "distribution_model": "",
      "notes": "",
      "cultures_served": []
    },
    {
      "name": "CMPGC - Seat Pleasant",
      "address": "5356 Sheriff Road Capitol Heights  MD 20743",
      "phone": "",
      "hours": "Friday: 09:00:00 to 11:00:00",
      "appointment_needed": "No",
      "requirements": "",
      "distribution_model": "",
      "notes": "",
      "cultures_served": [
        "East Asian,Latin American,West African"
      ]
    },
    {
      "name": "Calvary Assembly of Holy Cross",
      "address": "3505 Hubbard Rd LANDOVER MD 20785",
      "phone": "",
      "hours": "Wednesday: 09:30:00 to 11:30:00",
      "appointment_needed": "No",
      "requirements": "",
      "distribution_model": "",
      "notes": "",
      "cultures_served": [
        "Central/South Asian,East African,East Asian,Eastern European,Latin American,Middle Eastern/ North African,West African"
      ]
    },
    {
      "name": "Calvary Christian Church",
      "address": "9800 Old Keene Mill Road  Burke  VA 22015",
      "phone": "(571) 212-3922",
      "hours": "Thursday: 08:00:00 to 09:30:00",
      "appointment_needed": "No",
      "requirements": "",
      "distribution_model": "",
      "notes": "",
      "cultures_served": [
        "Central/South Asian,East African,East Asian,Eastern European,Latin American,Middle Eastern/ North African,West African"
      ]
    },
    {
      "name": "Calvary Episcopal Church",
      "address": "509 I Street NE Washington DC 20002",
      "phone": "(858) 405-6276",
      "hours": "Saturday: 10:00:00 to 12:00:00, 10:00:00 to 13:00:00",
      "appointment_needed": "Yes",
      "requirements": "Income",
      "distribution_model": "",
      "notes": "",
      "cultures_served": [
        "Latin American,West African"
      ]
    },
    {
      "name": "Calvary Pentecostal Ministries",
      "address": "7910 Cessna Avenue Gaithersburg MD 20879",
      "phone": "(301) 775-0404",
      "hours": "Tuesday: 19:00:00 to 20:30:00",
      "appointment_needed": "No",
      "requirements": "",
      "distribution_model": "",
      "notes": "",
      "cultures_served": [
        "East African,Latin American,Middle Eastern/ North African,West African"
      ]
    },
    {
      "name": "Capital Christian Fellowship",
      "address": "10411 Greenbelt Rd  Lanham MD 20706",
      "phone": "",
      "hours": "Sunday: 12:00:00 to 12:30:00; Wednesday: 10:00:00 to 13:00:00",
      "appointment_needed": "No",
      "requirements": "",
      "distribution_model": "",
      "notes": "",
      "cultures_served": [
        "Central/South Asian,East African,East Asian,Eastern European,Latin American,Middle Eastern/ North African,West African"
      ]
    },
    {
      "name": "Catholic Charities - Montgomery County Family Center",
      "address": "12247 Georgia Ave Silver Spring MD 20902",
      "phone": "",
      "hours": "Tuesday: 10:00:00 to 12:00:00",
      "appointment_needed": "No",
      "requirements": "",
      "distribution_model": "",
      "notes": "",
      "cultures_served": [
        "East African,East Asian,Latin American,West African"
      ]
    },
    {
      "name": "Celestial Church of Christ",
      "address": "1880 Adams Street NE Washington DC 20018",
      "phone": "(240) 467-8399",
      "hours": "Saturday: 12:00:00 to 14:00:00",
      "appointment_needed": "No",
      "requirements": "",
      "distribution_model": "",
      "notes": "",
      "cultures_served": [
        "Eastern European,Latin American,West African"
      ]
    },
    {
      "name": "Central Baptist Church of Camp Springs",
      "address": "5600 Old Branch Avenue Camp Springs MD 20748",
      "phone": "(301) 899-3800",
      "hours": "Wednesday\u2013Friday: 10:00:00 to 14:00:00; Tuesday: 10:00:00 to 12:00:00",
      "appointment_needed": "Yes",
      "requirements": "ID",
      "distribution_model": "",
      "notes": "",
      "cultures_served": [
        "Central/South Asian,East African,East Asian,Latin American,West African"
      ]
    },
    {
      "name": "Central Union Mission",
      "address": "65 Massachusetts Ave Washington DC 20001",
      "phone": "(202) 718-0549",
      "hours": "Monday\u2013Sunday: 12:30:00 to 18:00:00",
      "appointment_needed": "No",
      "requirements": "Zip Code",
      "distribution_model": "",
      "notes": "",
      "cultures_served": [
        "Latin American,Middle Eastern/ North African,West African"
      ]
    },
    {
      "name": "Centreville UMC",
      "address": "6400 Old Centreville Rd Centreville VA 20121",
      "phone": "(703) 830-2684",
      "hours": "Thursday: 17:30:00 to 18:30:00; Saturday: 07:30:00 to 09:30:00",
      "appointment_needed": "No",
      "requirements": "Income",
      "distribution_model": "",
      "notes": "",
      "cultures_served": [
        "Central/South Asian,East African,East Asian,Eastern European,Latin American,Middle Eastern/ North African,West African"
      ]
    },
    {
      "name": "Centro de Apoyo Familiar (CAF)",
      "address": "13923 Minnieville Road  Woodbridge VA 22193",
      "phone": "(301) 328-3292",
      "hours": "Friday: 16:30:00 to 18:30:00; Saturday: 10:00:00 to 14:00:00, 10:30:00 to 12:30:00",
      "appointment_needed": "No",
      "requirements": "Income",
      "distribution_model": "",
      "notes": "",
      "cultures_served": [
        "Latin American,West African"
      ]
    },
    {
      "name": "Chantilly Baptist Church",
      "address": "14312 Chantilly Baptist Ln Chantilly VA 220175",
      "phone": "",
      "hours": "Tuesday: 13:30:00 to 15:30:00",
      "appointment_needed": "No",
      "requirements": "",
      "distribution_model": "",
      "notes": "",
      "cultures_served": [
        "East Asian,Latin American"
      ]
    },
    {
      "name": "Cheer, Inc.",
      "address": "8720 Carroll Avenue,  Silver Spring MD 20903",
      "phone": "(301) 589-3633",
      "hours": "Tuesday: 16:00:00 to 17:30:00",
      "appointment_needed": "No",
      "requirements": "Zip Code",
      "distribution_model": "",
      "notes": "",
      "cultures_served": [
        "East African,Latin American,West African"
      ]
    },
    {
      "name": "Chick Armstrong Recreation Center",
      "address": "25 W Reed Ave Alexandria VA 22305",
      "phone": "",
      "hours": "Saturday: 08:30:00 to 10:30:00",
      "appointment_needed": "No",
      "requirements": "",
      "distribution_model": "",
      "notes": "",
      "cultures_served": []
    },
    {
      "name": "Children of Mine",
      "address": "2263 mount view place, se washington DC 20020",
      "phone": "(202) 374-6029",
      "hours": "Tuesday: 08:00:00 to 10:00:00",
      "appointment_needed": "No",
      "requirements": "",
      "distribution_model": "",
      "notes": "",
      "cultures_served": []
    },
    {
      "name": "Chrisma Charities",
      "address": "12805 Georgia Avenue Silver Spring MD 20906",
      "phone": "",
      "hours": "Monday: 10:00:00 to 12:00:00; Tuesday: 10:00:00 to 11:00:00; Saturday: 08:00:00 to 10:00:00; Friday: 10:00:00 to 14:00:00",
      "appointment_needed": "No",
      "requirements": "Income",
      "distribution_model": "",
      "notes": "",
      "cultures_served": [
        "Central/South Asian,East African,East Asian,Eastern European,Latin American,Middle Eastern/ North African,West African"
      ]
    },
    {
      "name": "Christ Embassy Maryland",
      "address": "1221 Carraway Court Suite 1010 Largo MD 20774",
      "phone": "(301) 537-1765",
      "hours": "Saturday: 10:00:00 to 12:00:00",
      "appointment_needed": "No",
      "requirements": "",
      "distribution_model": "",
      "notes": "",
      "cultures_served": [
        "Latin American,West African"
      ]
    },
    {
      "name": "Christ United Methodist 5000 Food Ministry",
      "address": "900 4th Street SW Washington, DC 20024 Washington DC 20024",
      "phone": "(202) 669-2664",
      "hours": "Saturday: 14:00:00 to 15:00:00",
      "appointment_needed": "No",
      "requirements": "",
      "distribution_model": "",
      "notes": "",
      "cultures_served": [
        "Central/South Asian,East African,East Asian,Eastern European,Latin American"
      ]
    },
    {
      "name": "Christ the Redeemer Catholic Church",
      "address": "46833 Harry Byrd Hwy Sterling VA 20164",
      "phone": "",
      "hours": "Tuesday: 10:00:00 to 11:30:00",
      "appointment_needed": "No",
      "requirements": "",
      "distribution_model": "",
      "notes": "",
      "cultures_served": [
        "Central/South Asian,East African,Eastern European,Latin American,Middle Eastern/ North African,West African"
      ]
    },
    {
      "name": "Christ4Crisis",
      "address": "14339 Richmond high way Woodbridge  VA 22191",
      "phone": "(571) 398-7826",
      "hours": "Saturday: 10:00:00 to 15:00:00",
      "appointment_needed": "No",
      "requirements": "",
      "distribution_model": "",
      "notes": "",
      "cultures_served": []
    },
    {
      "name": "Church of Christ",
      "address": "4801 16th St NW Washington DC 20011",
      "phone": "",
      "hours": "Wednesday: 09:00:00 to 11:00:00",
      "appointment_needed": "No",
      "requirements": "",
      "distribution_model": "",
      "notes": "",
      "cultures_served": []
    },
    {
      "name": "Church of Christ of Dale City",
      "address": "13130 Hillendale Drive Dale City VA 22193",
      "phone": "(703) 346-4991",
      "hours": "Monday: 15:00:00 to 17:00:00",
      "appointment_needed": "No",
      "requirements": "",
      "distribution_model": "",
      "notes": "",
      "cultures_served": [
        "Eastern European,Latin American"
      ]
    },
    {
      "name": "Church of The Redeemer of Gaithersburg",
      "address": "19425 Woodfield Road Gaithersburg MD 20879",
      "phone": "(240) 238-1576",
      "hours": "Saturday: 10:00:00 to 12:00:00",
      "appointment_needed": "No",
      "requirements": "",
      "distribution_model": "",
      "notes": "",
      "cultures_served": [
        "East African,Eastern European,Latin American,Middle Eastern/ North African,West African"
      ]
    },
    {
      "name": "Church of the Incarnation, St. Vincent De Paul Society",
      "address": "880 Eastern Ave  NE Washington DC 20019",
      "phone": "(301) 728-3134",
      "hours": "Tuesday: 11:00:00 to 14:00:00",
      "appointment_needed": "No",
      "requirements": "ID,Income",
      "distribution_model": "",
      "notes": "",
      "cultures_served": []
    },
    {
      "name": "Church of the Resurrection",
      "address": "5150 Fillmore Ave Alexandria VA 22311",
      "phone": "(703) 998-0888",
      "hours": "Monday: 17:00:00 to 18:30:00",
      "appointment_needed": "No",
      "requirements": "ID,Zip Code",
      "distribution_model": "",
      "notes": "",
      "cultures_served": [
        "Central/South Asian,East African,Eastern European,Latin American,Middle Eastern/ North African,West African"
      ]
    },
    {
      "name": "City Blossoms",
      "address": "516 Kennedy St NW Washington DC 20011",
      "phone": "",
      "hours": "Thursday: 11:00:00 to 15:00:00",
      "appointment_needed": "No",
      "requirements": "",
      "distribution_model": "",
      "notes": "",
      "cultures_served": [
        "East African,Latin American,Middle Eastern/ North African"
      ]
    },
    {
      "name": "City of David Ministries",
      "address": "2900 Boones Lane District Heights MD 20747",
      "phone": "(301) 200-2489",
      "hours": "Saturday: 08:00:00 to 15:00:00, 10:00:00 to 14:00:00",
      "appointment_needed": "Yes",
      "requirements": "ID",
      "distribution_model": "",
      "notes": "",
      "cultures_served": []
    },
    {
      "name": "City of Greenbelt Food Pantry",
      "address": "15 Crescent Rd Greenbelt MD 20770",
      "phone": "(240) 542-2012",
      "hours": "Thursday: 13:00:00 to 15:00:00",
      "appointment_needed": "No",
      "requirements": "",
      "distribution_model": "",
      "notes": "",
      "cultures_served": [
        "Central/South Asian,East African,East Asian,Eastern European,Latin American,Middle Eastern/ North African,West African"
      ]
    },
    {
      "name": "City of Hyattsville",
      "address": "6201 Belcrest RD Hyattsville MD 20782",
      "phone": "",
      "hours": "Tuesday: 10:00:00 to 12:00:00",
      "appointment_needed": "No",
      "requirements": "",
      "distribution_model": "",
      "notes": "",
      "cultures_served": [
        "Latin American"
      ]
    },
    {
      "name": "City of Praise Family Ministries",
      "address": "8806 Brightseat Road Landover MD 20785",
      "phone": "(301) 404-8234",
      "hours": "Tuesday: 15:00:00 to 16:30:00; Thursday: 16:30:00 to 18:00:00; Friday: 09:00:00 to 10:00:00",
      "appointment_needed": "Yes",
      "requirements": "ID,Income,Zip Code",
      "distribution_model": "",
      "notes": "",
      "cultures_served": [
        "Eastern European,Latin American,West African"
      ]
    },
    {
      "name": "Clifton Park Baptist Church",
      "address": "8818 Piney Branch Road Silver Spring MD 20903",
      "phone": "(240) 372-3616",
      "hours": "Saturday: 08:30:00 to 10:30:00, 10:00:00 to 12:00:00; Thursday: 09:00:00 to 12:00:00, 10:00:00 to 12:00:00; Wednesday: 11:00:00 to 14:00:00; Friday: 10:00:00 to 11:30:00",
      "appointment_needed": "No",
      "requirements": "ID,Zip Code",
      "distribution_model": "",
      "notes": "",
      "cultures_served": [
        "Central/South Asian,East African,East Asian,Eastern European,Latin American,Middle Eastern/ North African,West African"
      ]
    },
    {
      "name": "Clothing of Power Eternal Church",
      "address": "25 Quire Ave Capitol Heights MD 20743",
      "phone": "(240) 398-1681",
      "hours": "Saturday: 09:00:00 to 12:00:00",
      "appointment_needed": "No",
      "requirements": "",
      "distribution_model": "",
      "notes": "",
      "cultures_served": [
        "East Asian,Latin American,West African"
      ]
    },
    {
      "name": "Code 3 Association",
      "address": "2929 Graham Road Falls Church VA 22042",
      "phone": "(703) 400-2118",
      "hours": "Saturday: 11:00:00 to 12:00:00",
      "appointment_needed": "No",
      "requirements": "",
      "distribution_model": "",
      "notes": "",
      "cultures_served": [
        "East African,Latin American,Middle Eastern/ North African,West African"
      ]
    },
    {
      "name": "College Park Community Food Bank",
      "address": "9704 Rhode Island Ave College Park MD 20740",
      "phone": "(301) 364-4931",
      "hours": "Saturday: 09:30:00 to 11:00:00",
      "appointment_needed": "No",
      "requirements": "",
      "distribution_model": "",
      "notes": "",
      "cultures_served": [
        "East Asian,Latin American"
      ]
    },
    {
      "name": "Columbia Baptist Church",
      "address": "3245 Glen Carlyn Rd. Falls Church VA 22041",
      "phone": "(571) 422-2075",
      "hours": "Saturday: 09:00:00 to 10:30:00",
      "appointment_needed": "No",
      "requirements": "",
      "distribution_model": "",
      "notes": "",
      "cultures_served": [
        "Central/South Asian,East African,East Asian,Eastern European,Latin American,Middle Eastern/ North African,West African"
      ]
    },
    {
      "name": "Columbia Heights Village Tenant Association",
      "address": "2900 14th Street NW Suite 110 Washington DC 20009",
      "phone": "(202) 390-8580",
      "hours": "Monday: 12:00:00 to 18:00:00; Tuesday: 12:00:00 to 19:00:00, 13:00:00 to 15:00:00; Thursday: 09:00:00 to 19:00:00, 12:00:00 to 20:00:00; Wednesday: 11:00:00 to 15:00:00; As Needed: 08:00:00 to 20:00:00",
      "appointment_needed": "Yes",
      "requirements": "ID,Zip Code",
      "distribution_model": "",
      "notes": "",
      "cultures_served": [
        "East Asian,Eastern European,Latin American,West African"
      ]
    },
    {
      "name": "Community Family Life Services",
      "address": "305 E Street NW Washington DC 20001",
      "phone": "(202) 347-0511",
      "hours": "Tuesday: 10:00:00 to 12:00:00",
      "appointment_needed": "No",
      "requirements": "ID",
      "distribution_model": "",
      "notes": "",
      "cultures_served": [
        "East African,Latin American,West African"
      ]
    },
    {
      "name": "Community Health Foundation",
      "address": "9150 Lanham Severn Rd.  Lanham MD 20706",
      "phone": "(240) 353-1699",
      "hours": "Saturday: 10:00:00 to 15:00:00",
      "appointment_needed": "No",
      "requirements": "ID,Income,Zip Code",
      "distribution_model": "",
      "notes": "",
      "cultures_served": [
        "East African,Latin American,West African"
      ]
    },
    {
      "name": "Community Marketplace - Arlington",
      "address": "909 S Dinwiddie St Arlington VA 22204",
      "phone": "",
      "hours": "Saturday: 08:30:00 to 10:30:00",
      "appointment_needed": "No",
      "requirements": "",
      "distribution_model": "",
      "notes": "",
      "cultures_served": []
    },
    {
      "name": "Community Marketplace - Reston",
      "address": "12125 Pinecrest Rd Reston VA 20190",
      "phone": "",
      "hours": "Saturday: 08:30:00 to 10:30:00",
      "appointment_needed": "No",
      "requirements": "",
      "distribution_model": "",
      "notes": "",
      "cultures_served": []
    },
    {
      "name": "Community Marketplace at Rosedale Rec",
      "address": "1701 Gales St. NE Washington DC 20002",
      "phone": "",
      "hours": "Saturday: 08:30:00 to 10:30:00",
      "appointment_needed": "No",
      "requirements": "",
      "distribution_model": "",
      "notes": "",
      "cultures_served": []
    },
    {
      "name": "Community Multi-Service",
      "address": "6300 9th St NW  Washington DC  DC 20011",
      "phone": "(301) 588-9280",
      "hours": "Monday\u2013Sunday: 09:00:00 to 17:00:00",
      "appointment_needed": "No",
      "requirements": "",
      "distribution_model": "",
      "notes": "",
      "cultures_served": [
        "East African,Latin American,West African"
      ]
    },
    {
      "name": "Community Outreach and Development CDC",
      "address": "4715 Marlboro Pike Capitol Heights MD 20743",
      "phone": "",
      "hours": "Tuesday, Friday: 11:00:00 to 13:00:00",
      "appointment_needed": "No",
      "requirements": "",
      "distribution_model": "",
      "notes": "",
      "cultures_served": [
        "Central/South Asian,East African,East Asian,Latin American,Middle Eastern/ North African,West African"
      ]
    },
    {
      "name": "Community Outreach and Development Center CDC",
      "address": "4719 Marlboro Pike Capitol Heights MD 20743",
      "phone": "(301) 735-0121",
      "hours": "Monday\u2013Thursday: 09:00:00 to 17:00:00; Friday: 12:00:00 to 13:00:00",
      "appointment_needed": "No",
      "requirements": "",
      "distribution_model": "",
      "notes": "",
      "cultures_served": [
        "Central/South Asian,East African,East Asian,Latin American,Middle Eastern/ North African,West African"
      ]
    },
    {
      "name": "Community Support Systems Inc BADEN",
      "address": "13500 Baden Westwood Road Brandywine MD 20613",
      "phone": "(301) 372-1491",
      "hours": "Friday: 09:30:00 to 11:00:00",
      "appointment_needed": "No",
      "requirements": "ID,Income,Zip Code",
      "distribution_model": "",
      "notes": "",
      "cultures_served": []
    },
    {
      "name": "Community of Faith United Methodist Church",
      "address": "13224 Franklin Farm Rd Herndon VA 20171",
      "phone": "(703) 620-1977",
      "hours": "Tuesday: 16:00:00 to 18:00:00",
      "appointment_needed": "No",
      "requirements": "ID",
      "distribution_model": "",
      "notes": "",
      "cultures_served": [
        "East Asian,Eastern European,Latin American,Middle Eastern/ North African"
      ]
    },
    {
      "name": "Congress Heights Family Success Center",
      "address": "1345 Savannah St SE  Washington DC 20032",
      "phone": "",
      "hours": "Monday: 11:00:00 to 14:00:00",
      "appointment_needed": "No",
      "requirements": "",
      "distribution_model": "",
      "notes": "",
      "cultures_served": []
    },
    {
      "name": "Corinth Baptist Church Outreach Program",
      "address": "814 Cypress Tree Dr Capitol Heights MD 20743",
      "phone": "(202) 486-3963",
      "hours": "Saturday: 10:00:00 to 12:00:00",
      "appointment_needed": "No",
      "requirements": "Zip Code",
      "distribution_model": "",
      "notes": "",
      "cultures_served": [
        "East Asian,Latin American,Middle Eastern/ North African"
      ]
    },
    {
      "name": "Cornerstone Peaceful Bible Baptist Church",
      "address": "9010 Frank Tippett Road Upper Marlboro MD 20772",
      "phone": "(240) 346-4169",
      "hours": "Wednesday: 16:30:00 to 18:30:00; Saturday: 09:00:00 to Until Food Runs Out",
      "appointment_needed": "No",
      "requirements": "",
      "distribution_model": "",
      "notes": "",
      "cultures_served": [
        "East African,East Asian,Latin American,Middle Eastern/ North African,West African"
      ]
    },
    {
      "name": "Cornerstones, Inc.",
      "address": "11484 Washington Plz W  #120 Reston VA 20190",
      "phone": "(571) 323-1410",
      "hours": "Friday: 08:30:00 to 13:30:00; Monday\u2013Thursday: 08:30:00 to 16:30:00; Saturday: 09:00:00 to 13:00:00",
      "appointment_needed": "No",
      "requirements": "ID,Zip Code",
      "distribution_model": "",
      "notes": "",
      "cultures_served": [
        "Central/South Asian,East African,East Asian,Eastern European,Latin American,Middle Eastern/ North African,West African"
      ]
    },
    {
      "name": "Covenant Baptist Food Pantry",
      "address": "3845 South Capitol St SW Washington DC 20032",
      "phone": "(202) 438-7532",
      "hours": "Thursday: 09:30:00 to 12:30:00",
      "appointment_needed": "No",
      "requirements": "ID",
      "distribution_model": "",
      "notes": "",
      "cultures_served": []
    },
    {
      "name": "Covenant House Greater Washington",
      "address": "2001 Mississippi Ave SE Washington DC 20020",
      "phone": "(202) 247-0747",
      "hours": "Monday\u2013Thursday: 09:00:00 to 16:00:00; Friday: 09:00:00 to 14:00:00",
      "appointment_needed": "No",
      "requirements": "",
      "distribution_model": "",
      "notes": "",
      "cultures_served": [
        "Latin American"
      ]
    },
    {
      "name": "Coverstone Apartments",
      "address": "10934 Coverstone Dr Manassas VA 20109",
      "phone": "",
      "hours": "Wednesday: 09:00:00 to 11:00:00",
      "appointment_needed": "No",
      "requirements": "",
      "distribution_model": "",
      "notes": "",
      "cultures_served": [
        "Latin American"
      ]
    },
    {
      "name": "Crossover Church",
      "address": "5340 Baltimore Ave Hyattsville MD 20781",
      "phone": "(301) 927-5620",
      "hours": "Friday: 08:30:00 to 11:00:00",
      "appointment_needed": "Yes",
      "requirements": "ID,Income,Zip Code",
      "distribution_model": "",
      "notes": "",
      "cultures_served": [
        "East African,Eastern European,Latin American,Middle Eastern/ North African,West African"
      ]
    },
    {
      "name": "Crowder Owens Calvary Food Bank (The Bishop Alfred A. Owens, Jr. Family Life CC)",
      "address": "600 W Street NE Washington DC 20002",
      "phone": "(202) 529-2299",
      "hours": "Tuesday\u2013Wednesday: 12:00:00 to 14:00:00; Thursday: 17:00:00 to 19:00:00",
      "appointment_needed": "No",
      "requirements": "",
      "distribution_model": "",
      "notes": "",
      "cultures_served": [
        "Central/South Asian,East African,Eastern European,Latin American,Middle Eastern/ North African,West African"
      ]
    },
    {
      "name": "Culmore United Methodist Church",
      "address": "3400 Charles St Falls Church VA 22041",
      "phone": "",
      "hours": "Friday: 10:00:00 to 12:00:00",
      "appointment_needed": "No",
      "requirements": "",
      "distribution_model": "",
      "notes": "",
      "cultures_served": [
        "Latin American"
      ]
    },
    {
      "name": "DC Central Kitchen",
      "address": "2121 1st Street SW Washington DC 20024",
      "phone": "(202) 400-2806",
      "hours": "Monday\u2013Saturday: 08:00:00 to 16:00:00",
      "appointment_needed": "Yes",
      "requirements": "",
      "distribution_model": "",
      "notes": "",
      "cultures_served": [
        "Latin American"
      ]
    },
    {
      "name": "DC Doors",
      "address": "900 Rhode Island Ave NW Washington DC 20018",
      "phone": "(202) 248-2098",
      "hours": "Friday, Sunday: 07:00:00 to 22:00:00; Monday\u2013Thursday, Saturday: 09:30:00 to 16:30:00",
      "appointment_needed": "Yes",
      "requirements": "",
      "distribution_model": "",
      "notes": "",
      "cultures_served": []
    },
    {
      "name": "DC Food Project",
      "address": "3600 Calvert St. NW Washington DC 20007",
      "phone": "(202) 400-2806",
      "hours": "Monday\u2013Friday: 07:00:00 to 15:00:00",
      "appointment_needed": "No",
      "requirements": "",
      "distribution_model": "",
      "notes": "",
      "cultures_served": []
    },
    {
      "name": "DC University Food Pantry GWU",
      "address": "800 21st Street NW Ground Floor, Military and Veteran Services Washington DC 20052",
      "phone": "(202) 994-9192",
      "hours": "Monday\u2013Thursday: 12:00:00 to 18:00:00; Friday: 14:00:00 to 20:00:00",
      "appointment_needed": "No",
      "requirements": "",
      "distribution_model": "",
      "notes": "",
      "cultures_served": [
        "Central/South Asian,East African,East Asian,Eastern European,Latin American,Middle Eastern/ North African,West African"
      ]
    },
    {
      "name": "DMV Food Justice Initiative",
      "address": "3110 Chichester Lane Fairfax VA 22031",
      "phone": "(202) 415-9757",
      "hours": "Tuesday: 10:00:00 to 12:00:00",
      "appointment_needed": "No",
      "requirements": "Zip Code",
      "distribution_model": "",
      "notes": "",
      "cultures_served": [
        "Latin American"
      ]
    },
    {
      "name": "Dale City Christian Church",
      "address": "14022 Lindendale Rd Dale City VA 22193",
      "phone": "",
      "hours": "Saturday: 09:00:00 to 12:00:00",
      "appointment_needed": "No",
      "requirements": "",
      "distribution_model": "",
      "notes": "",
      "cultures_served": []
    },
    {
      "name": "Damien Ministries Food Pantry",
      "address": "2200 Rhode Island AVE NE Washington DC 20018",
      "phone": "(202) 526-3020",
      "hours": "Monday\u2013Thursday: 09:30:00 to 15:30:00",
      "appointment_needed": "Yes",
      "requirements": "ID,Zip Code",
      "distribution_model": "",
      "notes": "",
      "cultures_served": [
        "Central/South Asian,East African,East Asian,Eastern European,Latin American,Middle Eastern/ North African,West African"
      ]
    },
    {
      "name": "Dar Al-Hijrah Islamic Center",
      "address": "3159 Row Street Falls Church VA 22044",
      "phone": "(216) 262-1669",
      "hours": "Thursday: 09:00:00 to 11:00:00",
      "appointment_needed": "No",
      "requirements": "ID",
      "distribution_model": "",
      "notes": "",
      "cultures_served": [
        "Central/South Asian,East African,East Asian,Eastern European,Latin American,Middle Eastern/ North African,West African"
      ]
    },
    {
      "name": "Debre Medehanit Eyesus Ethiopian Ortodox Tewahido Church",
      "address": "13450 Minnieville Rd Woodbridge VA 22192",
      "phone": "",
      "hours": "Thursday: 10:00:00 to 12:00:00",
      "appointment_needed": "No",
      "requirements": "",
      "distribution_model": "",
      "notes": "",
      "cultures_served": [
        "Central/South Asian,East African,Eastern European,Latin American,Middle Eastern/ North African,West African"
      ]
    },
    {
      "name": "Destiny Driven",
      "address": "5900 Princess Garden Parkway Lanham  MD 20706",
      "phone": "(301) 455-5970",
      "hours": "Friday: 11:00:00 to 13:00:00; Saturday: 12:00:00 to 15:00:00; Tuesday: 10:00:00 to 14:00:00, 11:00:00 to 13:00:00; Wednesday: 10:00:00 to 12:00:00; Thursday: 10:00:00 to 13:00:00; Sunday: 12:00:00 to 13:00:00",
      "appointment_needed": "Yes",
      "requirements": "ID,Zip Code",
      "distribution_model": "",
      "notes": "",
      "cultures_served": [
        "Central/South Asian,East African,East Asian,Eastern European,Latin American,Middle Eastern/ North African,West African"
      ]
    },
    {
      "name": "Divine Grace Mission",
      "address": "4208 Glenn Dale Rd Bowie MD 20720",
      "phone": "(240) 460-0842",
      "hours": "Saturday: 10:30:00 to 14:00:00",
      "appointment_needed": "No",
      "requirements": "",
      "distribution_model": "",
      "notes": "",
      "cultures_served": [
        "East African,Latin American,Middle Eastern/ North African,West African"
      ]
    },
    {
      "name": "Dupont Park SDA Church",
      "address": "3942 Alabama Ave SE Washington DC 20019",
      "phone": "(301) 980-6274",
      "hours": "Tuesday: 10:00:00 to 12:00:00",
      "appointment_needed": "No",
      "requirements": "",
      "distribution_model": "",
      "notes": "",
      "cultures_served": [
        "East African,East Asian,Latin American"
      ]
    },
    {
      "name": "ECD - Edgewood Commons",
      "address": "8403 Colesville Rd Suite 1150 Silver Spring MD 20910",
      "phone": "(202) 506-4520",
      "hours": "Thursday: 11:00:00 to 16:00:00",
      "appointment_needed": "No",
      "requirements": "",
      "distribution_model": "",
      "notes": "",
      "cultures_served": []
    },
    {
      "name": "ECD - Overlook at Oxon Run",
      "address": "3700 9th st SE Washington DC 20032",
      "phone": "(202) 528-0489",
      "hours": "Wednesday: 10:00:00 to 13:00:00, 11:00:00 to 14:00:00; Thursday: 16:00:00 to 18:00:00",
      "appointment_needed": "No",
      "requirements": "",
      "distribution_model": "",
      "notes": "",
      "cultures_served": []
    },
    {
      "name": "ECWA USA Evangelical Church Winning All",
      "address": "5526 Marlboro Pike District Heights MD 20747",
      "phone": "(240) 743-6560",
      "hours": "Saturday: 11:00:00 to 13:00:00",
      "appointment_needed": "No",
      "requirements": "",
      "distribution_model": "",
      "notes": "",
      "cultures_served": [
        "East African,East Asian,Eastern European,Latin American,Middle Eastern/ North African,West African"
      ]
    },
    {
      "name": "East Montgomery County Hub",
      "address": "11710 Beltsville Drive Beltsville MD 20705",
      "phone": "(202) 352-7114",
      "hours": "Tuesday, Thursday: 17:00:00 to 19:00:00, 17:00:00 to 19:30:00; Wednesday: 17:30:00 to 19:00:00, 18:00:00 to 20:00:00; Friday: 13:00:00 to 14:00:00; Saturday: 09:00:00 to 10:30:00",
      "appointment_needed": "Yes",
      "requirements": "ID",
      "distribution_model": "",
      "notes": "",
      "cultures_served": [
        "Central/South Asian,East African,East Asian,Eastern European,Latin American,Middle Eastern/ North African,West African"
      ]
    },
    {
      "name": "Ebenezer AME Church",
      "address": "7703 Allentown Road Fort Washington MD 20744",
      "phone": "",
      "hours": "Tuesday, Thursday: 10:00:00 to 14:00:00, 15:00:00 to 18:30:00; Wednesday: 15:00:00 to 18:30:00; Saturday: 10:00:00 to 12:00:00",
      "appointment_needed": "No",
      "requirements": "ID",
      "distribution_model": "",
      "notes": "",
      "cultures_served": [
        "East African,East Asian,Latin American,West African"
      ]
    },
    {
      "name": "Ebenezer Baptist Church",
      "address": "13020 Telegraph Road Woodbridge VA 22192",
      "phone": "(703) 376-1664",
      "hours": "Tuesday, Friday: 10:30:00 to 12:30:00; Sunday: 11:30:00 to 12:00:00; Thursday: 10:30:00 to 12:00:00",
      "appointment_needed": "Yes",
      "requirements": "",
      "distribution_model": "",
      "notes": "",
      "cultures_served": [
        "East African,East Asian,Latin American,Middle Eastern/ North African,West African"
      ]
    },
    {
      "name": "Ebenezer Church of God",
      "address": "7550 Buchanan St. Hyattsville MD 20784",
      "phone": "",
      "hours": "Saturday: 09:00:00 to 11:00:00",
      "appointment_needed": "No",
      "requirements": "ID",
      "distribution_model": "",
      "notes": "",
      "cultures_served": [
        "Central/South Asian,East African,East Asian,Eastern European,Latin American,Middle Eastern/ North African,West African"
      ]
    },
    {
      "name": "Ebenezer We Care We Share Community",
      "address": "6016 Princess Garden Parkway New Carrollton MD 20784",
      "phone": "(301) 577-7436",
      "hours": "Saturday: 10:00:00 to 13:00:00",
      "appointment_needed": "Yes",
      "requirements": "",
      "distribution_model": "",
      "notes": "",
      "cultures_served": []
    },
    {
      "name": "Educare Support Services",
      "address": "7001 New Hampshire Ave Takoma Park MD 20912",
      "phone": "(240) 450-2092",
      "hours": "Monday\u2013Friday: As Needed to As Needed; Saturday: 10:00:00 to 13:00:00",
      "appointment_needed": "Yes",
      "requirements": "ID,Income",
      "distribution_model": "",
      "notes": "",
      "cultures_served": [
        "Central/South Asian,East African,East Asian,Eastern European,Latin American,Middle Eastern/ North African,West African"
      ]
    },
    {
      "name": "Edward C Mazique Child Care Center",
      "address": "1719 13th St NW Washington DC 20009",
      "phone": "(202) 462-3375",
      "hours": "Wednesday: 12:00:00 to 16:00:00; Monday\u2013Tuesday, Thursday\u2013Friday: 12:00:00 to 17:00:00",
      "appointment_needed": "No",
      "requirements": "",
      "distribution_model": "",
      "notes": "",
      "cultures_served": [
        "East African,Latin American,Middle Eastern/ North African,West African"
      ]
    },
    {
      "name": "Emmanuel Baptist Church",
      "address": "2409 Ainger Place SE Washington DC 20020",
      "phone": "(202) 678-0884",
      "hours": "Thursday: 16:00:00 to 18:00:00",
      "appointment_needed": "No",
      "requirements": "",
      "distribution_model": "",
      "notes": "",
      "cultures_served": []
    },
    {
      "name": "Emmanuel UMC",
      "address": "11416 Cedar Lane Beltsville MD 20705",
      "phone": "(301) 937-7114",
      "hours": "Saturday: 08:00:00 to 11:00:00",
      "appointment_needed": "No",
      "requirements": "ID,Income",
      "distribution_model": "",
      "notes": "",
      "cultures_served": [
        "East Asian,Latin American,Middle Eastern/ North African,West African"
      ]
    },
    {
      "name": "Emmanuel Worship Center Seventh Day Adventist Church",
      "address": "8145 Richmond Highway Alexandria VA 22309",
      "phone": "(301) 793-8578",
      "hours": "Saturday: 14:00:00 to 16:00:00",
      "appointment_needed": "No",
      "requirements": "Zip Code",
      "distribution_model": "",
      "notes": "",
      "cultures_served": [
        "East African,Latin American,West African"
      ]
    },
    {
      "name": "Emory Beacon of Light, Inc.",
      "address": "6100 Georgia Avenue NW  Washington  DC 20011",
      "phone": "",
      "hours": "Tuesday: 12:00:00 to 14:00:00",
      "appointment_needed": "Yes",
      "requirements": "",
      "distribution_model": "",
      "notes": "",
      "cultures_served": [
        "Central/South Asian,East African,East Asian,Latin American,Middle Eastern/ North African,West African"
      ]
    },
    {
      "name": "FISH of Laurel, Inc.",
      "address": "308 Gorman Ave Laurel  MD 20707",
      "phone": "(240) 460-5667",
      "hours": "Thursday: 10:00:00 to 12:00:00; Saturday: 10:00:00 to 12:30:00",
      "appointment_needed": "Yes",
      "requirements": "ID,Zip Code",
      "distribution_model": "",
      "notes": "",
      "cultures_served": [
        "Central/South Asian,East Asian,Latin American"
      ]
    },
    {
      "name": "Fairfax Church Resource Center",
      "address": "11451 Braddock Road Fairfax VA 22030",
      "phone": "(703) 745-1030",
      "hours": "Sunday: 13:00:00 to 14:00:00; Monday: 11:00:00 to 15:00:00; Tuesday\u2013Wednesday: 11:30:00 to 15:00:00; Thursday: 09:00:00 to 15:00:00",
      "appointment_needed": "Yes",
      "requirements": "ID,Income,Zip Code",
      "distribution_model": "",
      "notes": "",
      "cultures_served": []
    },
    {
      "name": "Fairmont Gardens Apartments",
      "address": "4100 Wadsworth Ct Annandale VA 22003",
      "phone": "",
      "hours": "Thursday: 09:00:00 to 11:00:00",
      "appointment_needed": "No",
      "requirements": "",
      "distribution_model": "",
      "notes": "",
      "cultures_served": [
        "Latin American,Middle Eastern/ North African"
      ]
    },
    {
      "name": "Faith Social Services",
      "address": "795 Center St #2A Herndon VA 20170",
      "phone": "(571) 345-4241",
      "hours": "Wednesday\u2013Saturday: 11:00:00 to 14:00:00",
      "appointment_needed": "No",
      "requirements": "",
      "distribution_model": "",
      "notes": "",
      "cultures_served": [
        "Central/South Asian,East African,East Asian,Eastern European,Latin American,Middle Eastern/ North African,West African"
      ]
    },
    {
      "name": "Faith Tabernacle of Prayer",
      "address": "2465 Alabama Ave SE Washington DC 20020",
      "phone": "(202) 678-6012",
      "hours": "Saturday: 11:30:00 to 13:30:00",
      "appointment_needed": "No",
      "requirements": "",
      "distribution_model": "",
      "notes": "",
      "cultures_served": []
    },
    {
      "name": "Faith Temple #2",
      "address": "211 Maryland Park Drive Capital Heights MD 20743",
      "phone": "(301) 655-1722",
      "hours": "Thursday: 09:00:00 to 11:00:00; Tuesday: 11:00:00 to 13:00:00",
      "appointment_needed": "No",
      "requirements": "",
      "distribution_model": "",
      "notes": "",
      "cultures_served": [
        "Latin American,Middle Eastern/ North African",
        "East African,Eastern European,Latin American,West African"
      ]
    },
    {
      "name": "Faith United Church of Christ",
      "address": "4900 10th St NE Washington DC 20017",
      "phone": "",
      "hours": "Thursday: 09:00:00 to 12:00:00",
      "appointment_needed": "No",
      "requirements": "",
      "distribution_model": "",
      "notes": "",
      "cultures_served": [
        "Latin American,West African"
      ]
    },
    {
      "name": "Faith United Ministries Outreach",
      "address": "7905 Fernham Lane District Heights MD 20747",
      "phone": "(301) 736-2383",
      "hours": "Saturday: 08:00:00 to 16:00:00",
      "appointment_needed": "No",
      "requirements": "",
      "distribution_model": "",
      "notes": "",
      "cultures_served": [
        "East Asian,West African"
      ]
    },
    {
      "name": "Faith Village of Greater Laurel, Inc.",
      "address": "13714 Briarwood Drive  Laurel MD 20708",
      "phone": "",
      "hours": "Saturday: 10:00:00 to 12:00:00",
      "appointment_needed": "No",
      "requirements": "Zip Code",
      "distribution_model": "",
      "notes": "",
      "cultures_served": [
        "East Asian,Latin American,West African"
      ]
    },
    {
      "name": "Family & Medical Counseling Service",
      "address": "2041 MLK Jr. Ave. SE Suite 303 Washington DC 20020",
      "phone": "(202) 889-7900",
      "hours": "Friday: 10:00:00 to 13:00:00; Tuesday\u2013Thursday: 10:00:00 to 16:00:00; Monday: 13:00:00 to 16:00:00",
      "appointment_needed": "Yes",
      "requirements": "ID,Zip Code",
      "distribution_model": "",
      "notes": "",
      "cultures_served": [
        "East African,Latin American,West African"
      ]
    },
    {
      "name": "First African Methodist Episcopal Church of Alexandria",
      "address": "8653 Richmond Highway Alexandria VA 22309",
      "phone": "(571) 758-9141",
      "hours": "Wednesday: 08:30:00 to 13:30:00",
      "appointment_needed": "No",
      "requirements": "",
      "distribution_model": "",
      "notes": "",
      "cultures_served": [
        "East Asian,Latin American,Middle Eastern/ North African,West African"
      ]
    },
    {
      "name": "First African Methodist Episcopal Church of Gaithersburg",
      "address": "17620 Washington Grove Lane Gaithersburg MD 20877",
      "phone": "(240) 632-9760",
      "hours": "Saturday: 14:00:00 to 16:00:00",
      "appointment_needed": "No",
      "requirements": "Zip Code",
      "distribution_model": "",
      "notes": "",
      "cultures_served": [
        "Central/South Asian,East African,East Asian,Eastern European,Latin American,Middle Eastern/ North African,West African"
      ]
    },
    {
      "name": "First Agape Baptist Church",
      "address": "25 W Reed Ave Alexandria VA 22305",
      "phone": "",
      "hours": "Friday: 11:00:00 to 13:00:00",
      "appointment_needed": "No",
      "requirements": "",
      "distribution_model": "",
      "notes": "",
      "cultures_served": [
        "Latin American,Middle Eastern/ North African"
      ]
    },
    {
      "name": "First Alliance Church",
      "address": "14500 New Hampshire Ave Silver Spring MD 20904",
      "phone": "(301) 785-8571",
      "hours": "Tuesday: 18:00:00 to 20:00:00; Saturday: 09:30:00 to 11:30:00",
      "appointment_needed": "No",
      "requirements": "",
      "distribution_model": "",
      "notes": "",
      "cultures_served": [
        "Central/South Asian,East African,East Asian,Eastern European,Latin American,Middle Eastern/ North African,West African"
      ]
    },
    {
      "name": "First Baptist Church Ken-Gar",
      "address": "3922 Hampden St Kensington MD 20895",
      "phone": "(917) 364-1681",
      "hours": "Saturday: 10:00:00 to 12:00:00; Wednesday: 13:00:00 to 14:30:00",
      "appointment_needed": "No",
      "requirements": "",
      "distribution_model": "",
      "notes": "",
      "cultures_served": [
        "Central/South Asian,East African,East Asian,Eastern European,Latin American,Middle Eastern/ North African,West African"
      ]
    },
    {
      "name": "First Baptist Church of Capitol Heights",
      "address": "6 Capitol Heights Blvd Capitol Heights MD 20743",
      "phone": "(301) 336-0722",
      "hours": "Tuesday, Thursday: 10:00:00 to 13:00:00",
      "appointment_needed": "Yes",
      "requirements": "ID,Zip Code",
      "distribution_model": "",
      "notes": "",
      "cultures_served": [
        "Latin American,West African"
      ]
    },
    {
      "name": "First Baptist Church of District Heights",
      "address": "7234 Lansdale Street District Heights MD 20747",
      "phone": "(301) 887-7380",
      "hours": "Tuesday, Thursday, Saturday: 09:00:00 to 12:00:00",
      "appointment_needed": "No",
      "requirements": "",
      "distribution_model": "",
      "notes": "",
      "cultures_served": [
        "East African,East Asian,Latin American,West African"
      ]
    },
    {
      "name": "First Baptist Church of Highland Park",
      "address": "6801 Sheriff Road Landover MD 20785",
      "phone": "(301) 773-6655",
      "hours": "Saturday: 09:00:00 to Until Food Runs Out; As Needed: 09:00:00 to 15:00:00",
      "appointment_needed": "No",
      "requirements": "ID",
      "distribution_model": "",
      "notes": "",
      "cultures_served": []
    },
    {
      "name": "First Baptist Church of Silver Spring Food Closet",
      "address": "828 Wayne Ave Silver Spring MD 20910",
      "phone": "(301) 466-8263",
      "hours": "Saturday: 10:00:00 to 12:00:00",
      "appointment_needed": "No",
      "requirements": "",
      "distribution_model": "",
      "notes": "",
      "cultures_served": [
        "East African,Latin American,West African"
      ]
    },
    {
      "name": "First SDA Church",
      "address": "810 Shepherd ST NW Washington DC 20011",
      "phone": "(202) 997-9663",
      "hours": "Thursday: 12:00:00 to 16:00:00",
      "appointment_needed": "No",
      "requirements": "",
      "distribution_model": "",
      "notes": "",
      "cultures_served": [
        "East African,Latin American,West African"
      ]
    },
    {
      "name": "Floris United Methodist Church",
      "address": "13600 Frying Pan Road Herndon VA 20171",
      "phone": "(703) 798-5826",
      "hours": "Saturday: 08:00:00 to 09:00:00",
      "appointment_needed": "No",
      "requirements": "Income",
      "distribution_model": "",
      "notes": "",
      "cultures_served": [
        "Central/South Asian,East African,East Asian,Latin American,Middle Eastern/ North African,West African"
      ]
    },
    {
      "name": "Foggy Bottom Food Pantry (United Church)",
      "address": "1920 G Street NW Washington DC 20006",
      "phone": "(202) 573-0450",
      "hours": "Saturday: 10:00:00 to 12:00:00",
      "appointment_needed": "No",
      "requirements": "ID,Income,Zip Code",
      "distribution_model": "",
      "notes": "",
      "cultures_served": [
        "East Asian,Latin American"
      ]
    },
    {
      "name": "Food For All",
      "address": "1810 16th St NW Washington DC 20009",
      "phone": "(240) 410-0024",
      "hours": "Saturday: 08:00:00 to 12:00:00; Friday: 07:30:00 to 13:00:00, 09:00:00 to 15:00:00; Thursday: 08:00:00 to 11:30:00, 08:00:00 to 13:00:00",
      "appointment_needed": "Yes",
      "requirements": "Income",
      "distribution_model": "",
      "notes": "",
      "cultures_served": [
        "Central/South Asian,East African,Eastern European,Latin American,West African"
      ]
    },
    {
      "name": "Food For Others",
      "address": "2938 Prosperity Avenue Fairfax VA 22031",
      "phone": "(703) 207-9173",
      "hours": "Tuesday\u2013Friday: 09:30:00 to 17:00:00",
      "appointment_needed": "No",
      "requirements": "ID,Income",
      "distribution_model": "",
      "notes": "",
      "cultures_served": [
        "Central/South Asian,East African,East Asian,Eastern European,Latin American,Middle Eastern/ North African,West African"
      ]
    },
    {
      "name": "Fort Foote Baptist Church",
      "address": "8310 Fort Foot Road Fort Washington MD 20744",
      "phone": "(240) 281-2303",
      "hours": "Saturday: 09:00:00 to 11:00:00",
      "appointment_needed": "No",
      "requirements": "",
      "distribution_model": "",
      "notes": "",
      "cultures_served": [
        "East Asian,Latin American"
      ]
    },
    {
      "name": "Fort Washington Food Pantry",
      "address": "9801 Livingston Road Fort Washington MD 20744",
      "phone": "(202) 679-8898",
      "hours": "Saturday: 09:00:00 to 11:00:00; Wednesday: 10:30:00 to 11:30:00",
      "appointment_needed": "No",
      "requirements": "ID,Zip Code",
      "distribution_model": "",
      "notes": "",
      "cultures_served": [
        "Latin American"
      ]
    },
    {
      "name": "Fountain Community Enrichment Inc.",
      "address": "15853 Commerce Court Upper Marlboro MD 20774",
      "phone": "(301) 335-5038",
      "hours": "Friday: 11:00:00 to 14:00:00",
      "appointment_needed": "Yes",
      "requirements": "ID,Income",
      "distribution_model": "",
      "notes": "",
      "cultures_served": []
    },
    {
      "name": "Fountain of Restoration Church",
      "address": "12304 Livingston Rd Fort Washington MD 20744",
      "phone": "(202) 213-4628",
      "hours": "Saturday: 12:00:00 to 16:00:00",
      "appointment_needed": "No",
      "requirements": "",
      "distribution_model": "",
      "notes": "",
      "cultures_served": [
        "East African,East Asian,Latin American,West African"
      ]
    },
    {
      "name": "Francis C. Hammond Middle School",
      "address": "4646 Seminary Rd Alexandria VA 22304",
      "phone": "",
      "hours": "Thursday: 16:00:00 to 18:00:00",
      "appointment_needed": "No",
      "requirements": "",
      "distribution_model": "",
      "notes": "",
      "cultures_served": [
        "Central/South Asian,East African,East Asian,Eastern European,Latin American,Middle Eastern/ North African,West African"
      ]
    },
    {
      "name": "Francis On The Hill",
      "address": "1614 Manchester Lane NW Washington DC 20011-2810",
      "phone": "(202) 680-0517",
      "hours": "Tuesday: 14:00:00 to 15:00:00",
      "appointment_needed": "No",
      "requirements": "",
      "distribution_model": "",
      "notes": "",
      "cultures_served": [
        "Central/South Asian,East African,East Asian,Eastern European,Latin American,Middle Eastern/ North African,West African"
      ]
    },
    {
      "name": "Frederick Douglass Community Center",
      "address": "2000 Alabama Ave SE Washington DC 20020",
      "phone": "",
      "hours": "Thursday: 10:00:00 to 13:00:00",
      "appointment_needed": "No",
      "requirements": "",
      "distribution_model": "",
      "notes": "",
      "cultures_served": [
        "Latin American"
      ]
    },
    {
      "name": "Freedom Community Church",
      "address": "9325 Mace Street Manassas Park VA 20111",
      "phone": "(571) 409-4892",
      "hours": "Monday: 16:00:00 to 18:00:00",
      "appointment_needed": "No",
      "requirements": "",
      "distribution_model": "",
      "notes": "",
      "cultures_served": [
        "Central/South Asian,East African,East Asian,Eastern European,Latin American,Middle Eastern/ North African,West African"
      ]
    },
    {
      "name": "Freedom Way Missionary Baptist Church",
      "address": "1266 Benning Road Capitol Heights MD 20743",
      "phone": "(301) 807-6912",
      "hours": "As Needed: 13:00:00 to 14:00:00",
      "appointment_needed": "Yes",
      "requirements": "ID,Zip Code",
      "distribution_model": "",
      "notes": "",
      "cultures_served": [
        "Latin American"
      ]
    },
    {
      "name": "Friends Of Douglass Community Center",
      "address": "3261 Stanton Road SE Washington DC 20020",
      "phone": "(202) 285-5354",
      "hours": "Monday\u2013Thursday: 12:00:00 to 18:00:00; Saturday: 09:00:00 to 12:00:00",
      "appointment_needed": "Yes",
      "requirements": "ID,Income,Zip Code",
      "distribution_model": "",
      "notes": "",
      "cultures_served": [
        "Latin American,West African"
      ]
    },
    {
      "name": "GAP Food Program",
      "address": "6715 Suitland Road Morningside MD 20746",
      "phone": "(202) 528-4321",
      "hours": "Sunday: 10:30:00 to 13:00:00",
      "appointment_needed": "No",
      "requirements": "",
      "distribution_model": "",
      "notes": "",
      "cultures_served": [
        "East African,Latin American,West African"
      ]
    },
    {
      "name": "Gaithersburg HELP",
      "address": "301 Muddy Branch Road Gaithersburg MD 20878",
      "phone": "(301) 216-2510",
      "hours": "Monday\u2013Friday: 17:00:00 to 18:30:00",
      "appointment_needed": "Yes",
      "requirements": "ID,Zip Code",
      "distribution_model": "",
      "notes": "",
      "cultures_served": [
        "Central/South Asian,Eastern European,Latin American"
      ]
    },
    {
      "name": "Gaithersburg Soup Kitchen",
      "address": "9008 Rosemont Drive Gaithersburg MD 20877",
      "phone": "(301) 926-0424",
      "hours": "Sunday: 14:30:00 to 16:00:00; Monday\u2013Friday: 15:30:00 to 16:30:00",
      "appointment_needed": "Yes",
      "requirements": "ID,Zip Code",
      "distribution_model": "",
      "notes": "",
      "cultures_served": [
        "Central/South Asian,East African,East Asian,Eastern European,Latin American,Middle Eastern/ North African,West African"
      ]
    },
    {
      "name": "Galilee Community Development Corporation",
      "address": "2101 Shadyside Ave  Suitland MD  20746",
      "phone": "",
      "hours": "Tuesday\u2013Thursday: 12:00:00 to 14:30:00",
      "appointment_needed": "Yes",
      "requirements": "ID",
      "distribution_model": "",
      "notes": "",
      "cultures_served": [
        "Central/South Asian,Eastern European,Latin American"
      ]
    },
    {
      "name": "Gallaudet University Food Pantry",
      "address": "800 Florida Ave. NE Room Ely 100 Washington DC 20002",
      "phone": "(202) 651-5144",
      "hours": "Monday\u2013Friday: 09:00:00 to 17:00:00",
      "appointment_needed": "No",
      "requirements": "ID,Zip Code",
      "distribution_model": "",
      "notes": "",
      "cultures_served": []
    },
    {
      "name": "Garfield Terrace Resident Council",
      "address": "2301 11th St NW Washington DC 20001",
      "phone": "",
      "hours": "Wednesday: 09:00:00 to 12:00:00",
      "appointment_needed": "No",
      "requirements": "",
      "distribution_model": "",
      "notes": "",
      "cultures_served": []
    },
    {
      "name": "Georgetown South Community Council",
      "address": "9444 Taney Rd Manassas VA 20110",
      "phone": "",
      "hours": "Thursday: 13:30:00 to 16:00:00",
      "appointment_needed": "No",
      "requirements": "",
      "distribution_model": "",
      "notes": "",
      "cultures_served": [
        "Latin American,West African"
      ]
    },
    {
      "name": "Gethsemane United Methodist Church",
      "address": "910 Addison Road Capitol Heights MD 20743",
      "phone": "(301) 237-7116",
      "hours": "Saturday: 10:00:00 to 13:00:00",
      "appointment_needed": "No",
      "requirements": "ID",
      "distribution_model": "",
      "notes": "",
      "cultures_served": [
        "Latin American"
      ]
    },
    {
      "name": "Good Samaritan Ministry",
      "address": "1417 Chillum Rd Hyattsville MD 20782",
      "phone": "(240) 478-0975",
      "hours": "Saturday: 10:00:00 to 12:00:00",
      "appointment_needed": "No",
      "requirements": "",
      "distribution_model": "",
      "notes": "",
      "cultures_served": [
        "East African,East Asian,Latin American,Middle Eastern/ North African,West African"
      ]
    },
    {
      "name": "Good Success Christian Church",
      "address": "4401 Sheriff Rd NE Washington DC 20019",
      "phone": "(301) 661-5442",
      "hours": "Tuesday\u2013Wednesday: 09:00:00 to 12:00:00",
      "appointment_needed": "No",
      "requirements": "Income,Zip Code",
      "distribution_model": "",
      "notes": "",
      "cultures_served": [
        "East African,Latin American,Middle Eastern/ North African,West African"
      ]
    },
    {
      "name": "Gospel Assembly Church",
      "address": "8740-12 Cherry Lane Laurel MD 20707",
      "phone": "(301) 605-3756",
      "hours": "Saturday: 11:00:00 to 13:00:00",
      "appointment_needed": "No",
      "requirements": "ID",
      "distribution_model": "",
      "notes": "",
      "cultures_served": [
        "Latin American,West African"
      ]
    },
    {
      "name": "Grace Baptist Church",
      "address": "3121 Trinity Drive Bowie MD 20715",
      "phone": "(301) 262-1767",
      "hours": "Saturday: 09:00:00 to 11:30:00",
      "appointment_needed": "Yes",
      "requirements": "",
      "distribution_model": "",
      "notes": "",
      "cultures_served": [
        "East African,East Asian,Eastern European,Latin American,Middle Eastern/ North African,West African"
      ]
    },
    {
      "name": "Grace Episcopal Church",
      "address": "3601 Russell Road Alexandria VA 22305",
      "phone": "(703) 549-1980",
      "hours": "Tuesday, Friday: 18:00:00 to 19:30:00",
      "appointment_needed": "No",
      "requirements": "",
      "distribution_model": "",
      "notes": "",
      "cultures_served": [
        "Latin American"
      ]
    },
    {
      "name": "Grace Ministries - Culmore",
      "address": "5901 Leesburg Pike Falls Church VA 22041",
      "phone": "(703) 220-5907",
      "hours": "Friday: 16:00:00 to 18:00:00",
      "appointment_needed": "No",
      "requirements": "",
      "distribution_model": "",
      "notes": "",
      "cultures_served": [
        "East Asian,Latin American"
      ]
    },
    {
      "name": "Grace of God Ministry",
      "address": "3950 48th Street Bladensburg MD 20710",
      "phone": "(240) 274-2829",
      "hours": "Thursday: 15:00:00 to 18:00:00",
      "appointment_needed": "No",
      "requirements": "",
      "distribution_model": "",
      "notes": "",
      "cultures_served": [
        "Latin American"
      ]
    },
    {
      "name": "Great Commission Change of Life Ministries",
      "address": "7937 Penn Randall Place Unit A Upper Marlboro  MD 20772",
      "phone": "",
      "hours": "Thursday: 10:30:00 to 12:30:00, 10:30:00 to 13:30:00",
      "appointment_needed": "No",
      "requirements": "",
      "distribution_model": "",
      "notes": "",
      "cultures_served": [
        "Latin American"
      ]
    },
    {
      "name": "Greater Fellowship Missionary Baptist Church",
      "address": "814 Alabama Ave SE Washington DC 20032",
      "phone": "(202) 413-4462",
      "hours": "Tuesday: 09:00:00 to 10:00:00",
      "appointment_needed": "No",
      "requirements": "ID",
      "distribution_model": "",
      "notes": "",
      "cultures_served": []
    },
    {
      "name": "Greater Little Zion Baptist Church",
      "address": "10185 Zion Dr Fairfax VA 22032",
      "phone": "(703) 728-4513",
      "hours": "Saturday: 10:00:00 to 12:00:00",
      "appointment_needed": "No",
      "requirements": "",
      "distribution_model": "",
      "notes": "",
      "cultures_served": [
        "Central/South Asian,East African,East Asian,Eastern European,Latin American,Middle Eastern/ North African,West African"
      ]
    },
    {
      "name": "Greater Morning Star Apostolic Church",
      "address": "7929 Richmond Highway Alexandria VA 22306-",
      "phone": "(913) 290-0606",
      "hours": "Friday: 10:00:00 to 16:00:00",
      "appointment_needed": "No",
      "requirements": "",
      "distribution_model": "",
      "notes": "",
      "cultures_served": [
        "Central/South Asian,East African,East Asian,Eastern European,Latin American,Middle Eastern/ North African,West African"
      ]
    },
    {
      "name": "Greater New Hope Baptist Church",
      "address": "816 8th STREET NW Washington DC 20001",
      "phone": "(301) 357-4905",
      "hours": "Tuesday: 11:00:00 to 13:00:00, 12:00:00 to 14:00:00",
      "appointment_needed": "No",
      "requirements": "",
      "distribution_model": "",
      "notes": "",
      "cultures_served": [
        "East Asian,West African"
      ]
    },
    {
      "name": "Greater Refuge Ministries",
      "address": "9512 Piscataway Road Clinton MD 20735",
      "phone": "(301) 856-8806",
      "hours": "Friday: 08:30:00 to 10:30:00",
      "appointment_needed": "No",
      "requirements": "",
      "distribution_model": "",
      "notes": "",
      "cultures_served": [
        "Latin American"
      ]
    },
    {
      "name": "Groveton Baptist Church",
      "address": "6511 Richmond Highway  Alexandria VA 22306",
      "phone": "(301) 648-5808",
      "hours": "Friday: 10:00:00 to 15:00:00",
      "appointment_needed": "No",
      "requirements": "",
      "distribution_model": "",
      "notes": "",
      "cultures_served": [
        "Central/South Asian,East African,East Asian,Eastern European,Latin American,Middle Eastern/ North African,West African"
      ]
    },
    {
      "name": "Guru Nanak Foundation of America (GNFA)",
      "address": "12917 Old Columbia Pike Silver Spring MD 20904",
      "phone": "(301) 728-7138",
      "hours": "Sunday: 12:00:00 to 15:00:00",
      "appointment_needed": "No",
      "requirements": "",
      "distribution_model": "",
      "notes": "",
      "cultures_served": [
        "Central/South Asian,East African,East Asian,Eastern European,Latin American,Middle Eastern/ North African,West African"
      ]
    },
    {
      "name": "HC - Germantown",
      "address": "19801 Observation Drive Germantown MD 20876",
      "phone": "",
      "hours": "Wednesday: 13:00:00 to 15:00:00",
      "appointment_needed": "No",
      "requirements": "",
      "distribution_model": "",
      "notes": "",
      "cultures_served": [
        "Central/South Asian,East African,East Asian,Eastern European,Latin American,Middle Eastern/ North African,West African"
      ]
    },
    {
      "name": "HC - Silver Spring",
      "address": "1500 Forest Glen Rd, Silver Spring MD 20910",
      "phone": "",
      "hours": "Wednesday: 13:00:00 to 15:00:00",
      "appointment_needed": "No",
      "requirements": "",
      "distribution_model": "",
      "notes": "",
      "cultures_served": []
    },
    {
      "name": "Harvest Gleaners",
      "address": "3210 Norbeck Road Silver Spring MD 20906",
      "phone": "(301) 503-7397",
      "hours": "Wednesday: 12:30:00 to Until Food Runs Out; Thursday: 12:00:00 to Until Food Runs Out",
      "appointment_needed": "Yes",
      "requirements": "ID",
      "distribution_model": "",
      "notes": "",
      "cultures_served": [
        "Central/South Asian,East African,East Asian,Latin American,Middle Eastern/ North African,West African"
      ]
    },
    {
      "name": "Haymarket Regional Food Pantry",
      "address": "7669 Limestone Drive Gainesville VA 20155",
      "phone": "(703) 795-4892",
      "hours": "Monday\u2013Thursday: 17:00:00 to 20:30:00; Saturday: 09:00:00 to 12:00:00",
      "appointment_needed": "Yes",
      "requirements": "ID,Zip Code",
      "distribution_model": "",
      "notes": "",
      "cultures_served": [
        "Central/South Asian,East African,East Asian,Eastern European,Latin American,Middle Eastern/ North African,West African"
      ]
    },
    {
      "name": "Helping Hungry Kids of NOVA",
      "address": "1441 Wiehle Ave Reston VA 20190",
      "phone": "(703) 477-0367",
      "hours": "As Needed: 10:00:00 to 11:30:00",
      "appointment_needed": "Yes",
      "requirements": "",
      "distribution_model": "",
      "notes": "",
      "cultures_served": [
        "Central/South Asian,East African,East Asian,Eastern European,Latin American,Middle Eastern/ North African,West African"
      ]
    },
    {
      "name": "Hermosa Valley Mobile Home Park",
      "address": "13950 Richmond Hwy Woodbridge VA 22191",
      "phone": "",
      "hours": "Thursday: 11:00:00 to 13:00:00",
      "appointment_needed": "No",
      "requirements": "",
      "distribution_model": "",
      "notes": "",
      "cultures_served": []
    },
    {
      "name": "Holiness Tabernacle Church of God",
      "address": "2193 Dale City VA 22195",
      "phone": "(703) 497-7928",
      "hours": "Friday: 09:30:00 to 10:30:00",
      "appointment_needed": "Yes",
      "requirements": "ID",
      "distribution_model": "",
      "notes": "",
      "cultures_served": [
        "Central/South Asian,East African,East Asian,Eastern European,Latin American,Middle Eastern/ North African,West African"
      ]
    },
    {
      "name": "Holy Family Catholic Church Food Pantry",
      "address": "14160 Ferndale Road Dale City VA 22193",
      "phone": "(703) 459-7156",
      "hours": "Monday, Wednesday: 16:00:00 to 17:30:00",
      "appointment_needed": "No",
      "requirements": "",
      "distribution_model": "",
      "notes": "",
      "cultures_served": []
    },
    {
      "name": "Holy Mountain International Ministries",
      "address": "6721 Mid Cities Avenue Beltsville MD 20705",
      "phone": "(443) 367-1951",
      "hours": "Friday: 10:00:00 to Until Food Runs Out",
      "appointment_needed": "No",
      "requirements": "Zip Code",
      "distribution_model": "",
      "notes": "",
      "cultures_served": [
        "Central/South Asian,East African,East Asian,Eastern European,Latin American,Middle Eastern/ North African,West African"
      ]
    },
    {
      "name": "Hope Multiplied",
      "address": "80 Mst SE Washington DC DC 20003",
      "phone": "(571) 445-4673",
      "hours": "Saturday: 11:00:00 to 12:30:00",
      "appointment_needed": "No",
      "requirements": "",
      "distribution_model": "",
      "notes": "",
      "cultures_served": [
        "East African,Latin American,West African"
      ]
    },
    {
      "name": "Hope Presbyterian Church",
      "address": "1100 Enterprise Road Mitchellville MD 20721",
      "phone": "(240) 678-7667",
      "hours": "Saturday: 10:00:00 to 12:00:00; Tuesday, Thursday: 12:00:00 to 13:30:00",
      "appointment_needed": "No",
      "requirements": "",
      "distribution_model": "",
      "notes": "",
      "cultures_served": []
    },
    {
      "name": "House of Mercy",
      "address": "8170 Flannery Court Manassas VA 20109",
      "phone": "(703) 579-0279",
      "hours": "Monday\u2013Friday: 10:00:00 to 16:00:00",
      "appointment_needed": "No",
      "requirements": "ID",
      "distribution_model": "",
      "notes": "",
      "cultures_served": [
        "East Asian"
      ]
    },
    {
      "name": "Hughes United Methodist Church",
      "address": "10700 Georgia Ave Wheaton  MD 20902",
      "phone": "(301) 949-8383",
      "hours": "Tuesday: 09:30:00 to 12:00:00; Wednesday: 09:30:00 to 11:00:00",
      "appointment_needed": "No",
      "requirements": "ID,Zip Code",
      "distribution_model": "",
      "notes": "",
      "cultures_served": [
        "Central/South Asian,East African,East Asian,Eastern European,Latin American,Middle Eastern/ North African,West African"
      ]
    },
    {
      "name": "Hyattsville Courthouse Parole and Probation",
      "address": "4990 Rhode Island Ave Hyattsville MD 20781",
      "phone": "",
      "hours": "Monday: 09:00:00 to 11:30:00",
      "appointment_needed": "No",
      "requirements": "",
      "distribution_model": "",
      "notes": "",
      "cultures_served": []
    },
    {
      "name": "ICNA Relief USA Programs Inc.",
      "address": "2912 WOODLAWN TRAIL ALEXANDRIA VA 22306",
      "phone": "(571) 662-0786",
      "hours": "Thursday: 12:30:00 to 13:30:00, 14:00:00 to 16:00:00",
      "appointment_needed": "Yes",
      "requirements": "Zip Code",
      "distribution_model": "",
      "notes": "",
      "cultures_served": [
        "Central/South Asian,East African,East Asian,Eastern European,Latin American,Middle Eastern/ North African,West African"
      ]
    },
    {
      "name": "ISKCON of Washington",
      "address": "10310 Oaklyn Dr Potomac MD 20854",
      "phone": "(240) 277-2221",
      "hours": "Monday\u2013Friday: 13:00:00 to 14:00:00, 18:00:00 to 19:00:00; Saturday: 13:00:00 to 19:00:00; Sunday: 14:00:00 to 19:00:00",
      "appointment_needed": "No",
      "requirements": "",
      "distribution_model": "",
      "notes": "",
      "cultures_served": [
        "Central/South Asian,East African,East Asian,Eastern European,Latin American,Middle Eastern/ North African,West African"
      ]
    },
    {
      "name": "Iglesia De Dios Pentecostal Nuevo Renacer",
      "address": "490 Victoria Court Millersville MD 21108",
      "phone": "",
      "hours": "Wednesday: 10:30:00 to Until Food Runs Out",
      "appointment_needed": "No",
      "requirements": "",
      "distribution_model": "",
      "notes": "",
      "cultures_served": [
        "Latin American,Middle Eastern/ North African"
      ]
    },
    {
      "name": "Iglesia Evangelica Cristo Promesa Fiel",
      "address": "17017 Georgia Avenue Olney MD 20832",
      "phone": "(301) 408-8302",
      "hours": "Tuesday: 17:00:00 to 20:00:00",
      "appointment_needed": "Yes",
      "requirements": "Zip Code",
      "distribution_model": "",
      "notes": "",
      "cultures_served": [
        "Latin American"
      ]
    },
    {
      "name": "Iglesia Pentecostal Trono de Jehova",
      "address": "2260 York Drive Woodbridge VA 22191",
      "phone": "(703) 501-2559",
      "hours": "Friday: 18:00:00 to 19:30:00",
      "appointment_needed": "No",
      "requirements": "",
      "distribution_model": "",
      "notes": "",
      "cultures_served": [
        "Latin American,West African"
      ]
    },
    {
      "name": "Impact One Church",
      "address": "7230 Central Avenue Capitol Heights MD 20743",
      "phone": "(301) 333-2083",
      "hours": "Saturday: 11:00:00 to 13:00:00",
      "appointment_needed": "Yes",
      "requirements": "ID",
      "distribution_model": "",
      "notes": "",
      "cultures_served": [
        "Latin American,West African"
      ]
    },
    {
      "name": "Inova Cares Clinics",
      "address": "6400 Arlington Blvd Falls Church VA 22042",
      "phone": "(703) 698-2552",
      "hours": "Monday\u2013Friday: 08:00:00 to 16:30:00; Saturday: 09:00:00 to 12:00:00",
      "appointment_needed": "No",
      "requirements": "Income",
      "distribution_model": "",
      "notes": "",
      "cultures_served": []
    },
    {
      "name": "InterFaith Works",
      "address": "751 Twinbrook Parkway Rockville MD 20851",
      "phone": "(240) 370-4984",
      "hours": "Tuesday\u2013Friday: 09:00:00 to 16:00:00; Saturday: 09:00:00 to 12:00:00",
      "appointment_needed": "Yes",
      "requirements": "ID,Zip Code",
      "distribution_model": "",
      "notes": "",
      "cultures_served": [
        "Central/South Asian,East African,East Asian,Eastern European,Latin American,Middle Eastern/ North African,West African"
      ]
    },
    {
      "name": "Interfaith Community Action Council - Oxon Hill Food Pantry",
      "address": "4915 Saint Barnabas Road Temple Hills MD 20748",
      "phone": "(301) 899-8358",
      "hours": "Saturday: 10:00:00 to 12:00:00",
      "appointment_needed": "Yes",
      "requirements": "Zip Code",
      "distribution_model": "",
      "notes": "",
      "cultures_served": [
        "East African,East Asian,Latin American,West African"
      ]
    },
    {
      "name": "International High School at Largo",
      "address": "505 Largo Rd SW Side Upper Marlboro MD 20774",
      "phone": "(301) 702-3810 ext 84137",
      "hours": "Thursday: 15:00:00 to 06:00:00",
      "appointment_needed": "No",
      "requirements": "",
      "distribution_model": "",
      "notes": "",
      "cultures_served": []
    },
    {
      "name": "Inwood House",
      "address": "10921 Inwood Avenue Silver Spring MD 20902",
      "phone": "",
      "hours": "Tuesday: 10:00:00 to 12:00:00",
      "appointment_needed": "No",
      "requirements": "",
      "distribution_model": "",
      "notes": "",
      "cultures_served": []
    },
    {
      "name": "James Apartments Resident Council",
      "address": "1425 N St NW Washington DC 20005",
      "phone": "",
      "hours": "Monday: 15:00:00 to 17:00:00",
      "appointment_needed": "No",
      "requirements": "",
      "distribution_model": "",
      "notes": "",
      "cultures_served": []
    },
    {
      "name": "James Creek Resident Council",
      "address": "100 N St SW Washington DC 20024",
      "phone": "",
      "hours": "Wednesday: 09:00:00 to 12:00:00",
      "appointment_needed": "No",
      "requirements": "",
      "distribution_model": "",
      "notes": "",
      "cultures_served": [
        "East African,Eastern European,Latin American,Middle Eastern/ North African,West African"
      ]
    },
    {
      "name": "James Lee Community Center",
      "address": "2855 Annandale Rd Falls Church VA 22042",
      "phone": "",
      "hours": "Monday: 13:00:00 to 14:00:00",
      "appointment_needed": "No",
      "requirements": "",
      "distribution_model": "",
      "notes": "",
      "cultures_served": []
    },
    {
      "name": "Jamil-UL Jalil",
      "address": "10845 Lanham Severn Road Glenn Dale MD 20769",
      "phone": "(240) 381-1143",
      "hours": "Friday: 09:30:00 to 11:00:00, 09:30:00 to 16:30:00, 14:00:00 to 16:00:00",
      "appointment_needed": "No",
      "requirements": "Income,Zip Code",
      "distribution_model": "",
      "notes": "",
      "cultures_served": [
        "Central/South Asian,East African,East Asian,Eastern European,Latin American,Middle Eastern/ North African,West African"
      ]
    },
    {
      "name": "Kingdom Cares Center",
      "address": "11700 Beltsville Drive Beltsville MD 20705",
      "phone": "(240) 707-1085",
      "hours": "Saturday: 09:00:00 to 10:30:00",
      "appointment_needed": "No",
      "requirements": "ID",
      "distribution_model": "",
      "notes": "",
      "cultures_served": []
    },
    {
      "name": "Kings and Priests International Ministries",
      "address": "520 Randolph Road Silver Spring MD 20904",
      "phone": "(301) 467-6646",
      "hours": "Wednesday: 17:00:00 to 19:30:00; Sunday: 12:30:00 to 15:30:00",
      "appointment_needed": "No",
      "requirements": "ID,Income,Zip Code",
      "distribution_model": "",
      "notes": "",
      "cultures_served": [
        "East African,East Asian,Latin American,Middle Eastern/ North African,West African"
      ]
    },
    {
      "name": "Kitchen of Purpose",
      "address": "918 S. Lincoln St Suite 2 Arlington VA 22204",
      "phone": "(703) 574-1058",
      "hours": "Thursday: 15:00:00 to 17:30:00",
      "appointment_needed": "No",
      "requirements": "",
      "distribution_model": "",
      "notes": "",
      "cultures_served": [
        "Central/South Asian,East African,East Asian,Eastern European,Latin American,Middle Eastern/ North African,West African"
      ]
    },
    {
      "name": "Koinonia Foundation, Inc.",
      "address": "6037 Franconia Road Alexandria VA 22310",
      "phone": "(703) 469-7354",
      "hours": "Monday: 09:00:00 to 12:30:00, 16:00:00 to 19:30:00; Tuesday\u2013Wednesday, Friday\u2013Saturday: 09:00:00 to 12:30:00; Thursday: 09:00:00 to 16:30:00",
      "appointment_needed": "Yes",
      "requirements": "Zip Code",
      "distribution_model": "",
      "notes": "",
      "cultures_served": [
        "Central/South Asian,East African,East Asian,Eastern European,Latin American,Middle Eastern/ North African,West African"
      ]
    },
    {
      "name": "LINK Mobile Food Pantry - Christ the Redeemer",
      "address": "46833 Harry Byrd Highway, Sterling VA 20164",
      "phone": "(703) 973-4444",
      "hours": "As Needed: 09:00:00 to 17:00:00",
      "appointment_needed": "Yes",
      "requirements": "Zip Code",
      "distribution_model": "",
      "notes": "",
      "cultures_served": [
        "Central/South Asian,East African,East Asian,Eastern European,Latin American,Middle Eastern/ North African,West African"
      ]
    },
    {
      "name": "La Iglesia Episcopal de Santa Maria",
      "address": "7000 Arlington Blvd Falls Church VA 22042",
      "phone": "(703) 244-1158",
      "hours": "Tuesday: 16:00:00 to 18:00:00",
      "appointment_needed": "No",
      "requirements": "Income,Zip Code",
      "distribution_model": "",
      "notes": "",
      "cultures_served": [
        "Central/South Asian,East Asian,Eastern European,Latin American,Middle Eastern/ North African,West African"
      ]
    },
    {
      "name": "Largo Community Church",
      "address": "1701 Enterprise Road Mitchellville MD 20721",
      "phone": "(301) 249-2255",
      "hours": "Saturday: 11:00:00 to 12:00:00; As Needed: 09:00:00 to 16:30:00",
      "appointment_needed": "No",
      "requirements": "",
      "distribution_model": "",
      "notes": "",
      "cultures_served": [
        "Latin American"
      ]
    },
    {
      "name": "Latin American Youth Center",
      "address": "6200  Sheridan St Riverdale MD 20737",
      "phone": "(202) 758-7490",
      "hours": "Thursday: 09:00:00 to 18:00:00, 11:30:00 to 13:30:00; Monday\u2013Wednesday, Friday: 09:00:00 to 18:00:00",
      "appointment_needed": "No",
      "requirements": "",
      "distribution_model": "",
      "notes": "",
      "cultures_served": [
        "East African,Latin American,Middle Eastern/ North African,West African"
      ]
    },
    {
      "name": "Laurel Advocacy & Referral Services, Inc.",
      "address": "311 Laurel Ave Laurel MD 20707",
      "phone": "(301) 776-0442",
      "hours": "Tuesday\u2013Friday: 09:00:00 to 14:00:00; Monday: 09:00:00 to 14:00:00, 17:00:00 to 19:30:00",
      "appointment_needed": "Yes",
      "requirements": "Zip Code",
      "distribution_model": "",
      "notes": "",
      "cultures_served": [
        "Central/South Asian,East African,East Asian,Latin American,Middle Eastern/ North African,West African"
      ]
    },
    {
      "name": "Lederer Gardens",
      "address": "4801 Nannie Helen Burroughs Ave NE Washington DC 20019",
      "phone": "",
      "hours": "Wednesday: 11:00:00 to 12:00:00",
      "appointment_needed": "No",
      "requirements": "",
      "distribution_model": "",
      "notes": "",
      "cultures_served": [
        "Central/South Asian,East African,East Asian,Eastern European,Latin American,Middle Eastern/ North African,West African"
      ]
    },
    {
      "name": "Life Builders",
      "address": "6608 Wilkins Place Forestville MD 20747",
      "phone": "(301) 785-2543",
      "hours": "Tuesday: 10:00:00 to 12:30:00",
      "appointment_needed": "No",
      "requirements": "ID,Income",
      "distribution_model": "",
      "notes": "",
      "cultures_served": []
    },
    {
      "name": "Lifehouse Church",
      "address": "12304 Baltimore Avenue Beltsville MD 20705",
      "phone": "(301) 787-4070",
      "hours": "Monday: 12:00:00 to 16:00:00",
      "appointment_needed": "No",
      "requirements": "",
      "distribution_model": "",
      "notes": "",
      "cultures_served": [
        "East African,East Asian,Eastern European,Latin American,Middle Eastern/ North African,West African"
      ]
    },
    {
      "name": "LindaBen Foundation",
      "address": "10739 Tucker St.  Beltsville  MD 20705",
      "phone": "(240) 461-9442",
      "hours": "Wednesday: 13:00:00 to 15:00:00; Tuesday: 12:00:00 to 15:00:00, 17:00:00 to 18:00:00; Thursday: 11:00:00 to Until Food Runs Out",
      "appointment_needed": "Yes",
      "requirements": "ID,Zip Code",
      "distribution_model": "",
      "notes": "",
      "cultures_served": [
        "Central/South Asian,East African,East Asian,Eastern European,Latin American,Middle Eastern/ North African,West African"
      ]
    },
    {
      "name": "Little David Baptist Church",
      "address": "3103 Shepherd Street Mount Rainier MD 20712",
      "phone": "(301) 927-5565",
      "hours": "Sunday: 09:30:00 to 11:00:00; Friday: 11:00:00 to 13:00:00",
      "appointment_needed": "Yes",
      "requirements": "",
      "distribution_model": "",
      "notes": "",
      "cultures_served": [
        "Latin American,West African"
      ]
    },
    {
      "name": "Living Faith Lutheran Church",
      "address": "1605 Veirs Mill Road Rockville MD 20851",
      "phone": "(301) 424-8622",
      "hours": "Tuesday: 09:00:00 to Until Food Runs Out",
      "appointment_needed": "No",
      "requirements": "",
      "distribution_model": "",
      "notes": "",
      "cultures_served": []
    },
    {
      "name": "Living Legends Awards for Service to Humanity",
      "address": "18800 New Hampshire Avenue Ashton MD 20861",
      "phone": "(240) 832-1039",
      "hours": "Sunday: 07:00:00 to 15:00:00",
      "appointment_needed": "No",
      "requirements": "",
      "distribution_model": "",
      "notes": "",
      "cultures_served": [
        "Central/South Asian,East African,Latin American,Middle Eastern/ North African,West African"
      ]
    },
    {
      "name": "Loaves & Fishes",
      "address": "1525 Newton St NW Washington DC 20910",
      "phone": "(240) 855-5874",
      "hours": "Saturday\u2013Sunday: 08:30:00 to 11:30:00",
      "appointment_needed": "No",
      "requirements": "",
      "distribution_model": "",
      "notes": "",
      "cultures_served": [
        "East African,East Asian,Latin American,Middle Eastern/ North African,West African"
      ]
    },
    {
      "name": "Lorton Community Action Center",
      "address": "9520 Richmond Hwy door A3 Lorton VA 22079",
      "phone": "(703) 339-5161",
      "hours": "Wednesday: 11:00:00 to 17:00:00; Thursday: 09:00:00 to 11:00:00; Tuesday: 17:00:00 to 19:00:00",
      "appointment_needed": "No",
      "requirements": "Zip Code",
      "distribution_model": "",
      "notes": "",
      "cultures_served": [
        "Central/South Asian,East African,East Asian,Eastern European,Latin American,Middle Eastern/ North African,West African"
      ]
    },
    {
      "name": "Love Church",
      "address": "14370 Lee Highway Suite 105 Gainesville VA 20155",
      "phone": "",
      "hours": "Tuesday: 12:00:00 to 14:00:00; Thursday: 16:00:00 to 18:00:00",
      "appointment_needed": "No",
      "requirements": "",
      "distribution_model": "",
      "notes": "",
      "cultures_served": []
    },
    {
      "name": "Love Donation Pantry",
      "address": "3450 Laurel Fort Meade Rd. Suite 101 Laurel MD 20708",
      "phone": "(240) 486-4213",
      "hours": "Wednesday, Friday: 12:00:00 to Until Food Runs Out",
      "appointment_needed": "No",
      "requirements": "",
      "distribution_model": "",
      "notes": "",
      "cultures_served": [
        "Central/South Asian,East African,Middle Eastern/ North African,West African"
      ]
    },
    {
      "name": "Luther Jackson Middle School Food Pantry",
      "address": "3020 Gallows Road Falls Church VA 22042",
      "phone": "(202) 669-2543",
      "hours": "Wednesday: 16:00:00 to 17:30:00",
      "appointment_needed": "No",
      "requirements": "ID",
      "distribution_model": "",
      "notes": "",
      "cultures_served": [
        "Latin American"
      ]
    },
    {
      "name": "Luther Rice Neighborhood Center",
      "address": "801 University Blvd W Silver Spring MD 20901",
      "phone": "(301) 593-1130",
      "hours": "Saturday: 11:00:00 to 13:00:00",
      "appointment_needed": "No",
      "requirements": "",
      "distribution_model": "",
      "notes": "",
      "cultures_served": [
        "East African,East Asian,Latin American,West African"
      ]
    },
    {
      "name": "Lutheran Church of the Abiding Presence",
      "address": "6304 Lee Chapel Rd Burke VA 22015",
      "phone": "(703) 455-7500",
      "hours": "Saturday: 08:30:00 to 11:30:00",
      "appointment_needed": "No",
      "requirements": "",
      "distribution_model": "",
      "notes": "",
      "cultures_served": [
        "Central/South Asian,East Asian,Latin American"
      ]
    },
    {
      "name": "MSB Community Outreach",
      "address": "2411 Lawrence St NE Washington DC 20018",
      "phone": "",
      "hours": "Tuesday: 09:00:00 to 14:00:00",
      "appointment_needed": "No",
      "requirements": "",
      "distribution_model": "",
      "notes": "",
      "cultures_served": [
        "Latin American,West African"
      ]
    },
    {
      "name": "MSB Outreach House",
      "address": "2411 Lawrence St NE Washington DC 20018",
      "phone": "(202) 526-3685",
      "hours": "Friday: 10:00:00 to 14:00:00; Tuesday: 09:00:00 to 14:00:00",
      "appointment_needed": "No",
      "requirements": "ID,Zip Code",
      "distribution_model": "",
      "notes": "",
      "cultures_served": [
        "Latin American,West African"
      ]
    },
    {
      "name": "Manassas Baptist Church",
      "address": "8730 Sudley Road Manassas VA 20110",
      "phone": "(703) 361-2146",
      "hours": "Wednesday: 17:00:00 to 20:00:00",
      "appointment_needed": "No",
      "requirements": "",
      "distribution_model": "",
      "notes": "",
      "cultures_served": []
    },
    {
      "name": "Manna Food Center",
      "address": "9311 Gaither Rd Gaithersburg MD 20877",
      "phone": "(240) 268-2539",
      "hours": "Monday: 06:30:00 to 16:00:00; Tuesday: 09:00:00 to 19:00:00; Wednesday: 07:00:00 to 17:00:00; Thursday: 07:00:00 to 07:00:00; Friday: 07:00:00 to 15:00:00; Saturday: 09:00:00 to 12:00:00, 10:00:00 to 13:00:00",
      "appointment_needed": "No",
      "requirements": "ID",
      "distribution_model": "",
      "notes": "",
      "cultures_served": [
        "Central/South Asian,East African,East Asian,Eastern European,Latin American,Middle Eastern/ North African,West African"
      ]
    },
    {
      "name": "Maranatha Springfield Church",
      "address": "5515 Cherokee Ave Suite 102 Alexandria VA 22312",
      "phone": "",
      "hours": "Saturday: 09:00:00 to 12:00:00",
      "appointment_needed": "No",
      "requirements": "",
      "distribution_model": "",
      "notes": "",
      "cultures_served": []
    },
    {
      "name": "Marlboro Churches Food Bank",
      "address": "4610 Largo Rd. Upper Marlboro MD 20772",
      "phone": "(240) 447-8712",
      "hours": "Saturday: 07:00:00 to 09:00:00",
      "appointment_needed": "No",
      "requirements": "Income,Zip Code",
      "distribution_model": "",
      "notes": "",
      "cultures_served": [
        "Latin American,Middle Eastern/ North African"
      ]
    },
    {
      "name": "Mary House",
      "address": "4303 13th st NE Washington DC 20017",
      "phone": "(202) 635-9025",
      "hours": "Tuesday: 10:00:00 to 13:00:00",
      "appointment_needed": "Yes",
      "requirements": "",
      "distribution_model": "",
      "notes": "",
      "cultures_served": [
        "East African,Latin American,Middle Eastern/ North African,West African"
      ]
    },
    {
      "name": "Maryland Umbrella Group",
      "address": "408 Addison Road South Seat Pleasant MD 20743",
      "phone": "(301) 219-6650",
      "hours": "Tuesday\u2013Thursday: 10:00:00 to 12:00:00; Monday: As Needed to As Needed; Saturday: 09:00:00 to 12:00:00",
      "appointment_needed": "Yes",
      "requirements": "ID,Income,Zip Code",
      "distribution_model": "",
      "notes": "",
      "cultures_served": [
        "East African,Latin American,West African"
      ]
    },
    {
      "name": "Messiah United Methodist Church",
      "address": "6215 Rolling Rd Springfield VA 22152",
      "phone": "(703) 927-7913",
      "hours": "Thursday: 17:00:00 to 18:00:00; Wednesday: 18:00:00 to 19:00:00",
      "appointment_needed": "No",
      "requirements": "",
      "distribution_model": "",
      "notes": "",
      "cultures_served": [
        "Central/South Asian,East African,East Asian,Latin American,Middle Eastern/ North African,West African",
        "Latin American"
      ]
    },
    {
      "name": "Metropolis Club",
      "address": "938 Rhode Island Ave NE Washington DC 20018",
      "phone": "(301) 793-4236",
      "hours": "Monday: 07:00:00 to 20:00:00; Tuesday\u2013Friday: 10:30:00 to 20:00:00; Saturday: 10:00:00 to 20:00:00; Sunday: 07:00:00 to 20:00:00, 10:00:00 to 14:00:00",
      "appointment_needed": "No",
      "requirements": "",
      "distribution_model": "",
      "notes": "",
      "cultures_served": [
        "Latin American,Middle Eastern/ North African"
      ]
    },
    {
      "name": "Metropolitan Baptist Church",
      "address": "1200 Mercantile Lane Suite 115B Largo MD 20774",
      "phone": "",
      "hours": "Saturday: 10:00:00 to 11:30:00, 10:00:00 to 12:00:00",
      "appointment_needed": "No",
      "requirements": "Zip Code",
      "distribution_model": "",
      "notes": "",
      "cultures_served": [
        "East African,Latin American,Middle Eastern/ North African,West African"
      ]
    },
    {
      "name": "Metropolitan SDA Church",
      "address": "6303 Riggs Rd Hyattsville MD 20783",
      "phone": "(301) 853-2224",
      "hours": "Wednesday: 10:00:00 to 12:00:00",
      "appointment_needed": "No",
      "requirements": "",
      "distribution_model": "",
      "notes": "",
      "cultures_served": [
        "Central/South Asian,East African,East Asian,Latin American,Middle Eastern/ North African,West African"
      ]
    },
    {
      "name": "Mid County United Ministries (MUM)",
      "address": "11002 Viers Mill Road Suite 710 Wheaton MD 20902",
      "phone": "(202) 368-5466",
      "hours": "Wednesday\u2013Thursday: 10:00:00 to 12:00:00, 13:00:00 to 15:00:00",
      "appointment_needed": "No",
      "requirements": "ID,Zip Code",
      "distribution_model": "",
      "notes": "",
      "cultures_served": [
        "Central/South Asian,East African,East Asian,Eastern European,Latin American,Middle Eastern/ North African,West African"
      ]
    },
    {
      "name": "Mid-County Hub at Harvest Intercontinental Church Olney",
      "address": "16227 Batchellors Forest Rd Olney MD 20832",
      "phone": "(301) 512-5584",
      "hours": "Friday: 11:00:00 to 18:00:00, 14:00:00 to 18:00:00; Saturday: 09:00:00 to 11:00:00; Tuesday\u2013Wednesday: 14:00:00 to 18:00:00",
      "appointment_needed": "Yes",
      "requirements": "ID,Zip Code",
      "distribution_model": "",
      "notes": "",
      "cultures_served": [
        "Central/South Asian,East African,East Asian,Eastern European,Latin American,Middle Eastern/ North African,West African"
      ]
    },
    {
      "name": "Miriam's Kitchen",
      "address": "2401 Virginia Ave NW Washington DC 20037",
      "phone": "(240) 350-1058",
      "hours": "Monday\u2013Friday: 07:00:00 to 08:00:00, 16:00:00 to 17:00:00",
      "appointment_needed": "No",
      "requirements": "",
      "distribution_model": "",
      "notes": "",
      "cultures_served": [
        "Central/South Asian,East African,East Asian,Eastern European,Latin American,Middle Eastern/ North African,West African"
      ]
    },
    {
      "name": "Mission of Love Charities, Inc.",
      "address": "6180 Central Avenue Capitol Heights MD 20743",
      "phone": "(301) 333-4440",
      "hours": "Monday\u2013Thursday: 08:30:00 to 15:30:00; Friday: 08:30:00 to 12:00:00",
      "appointment_needed": "No",
      "requirements": "ID,Income",
      "distribution_model": "",
      "notes": "",
      "cultures_served": []
    },
    {
      "name": "Mollemm Food Pantry",
      "address": "9721 Good Luck Road Lanham MD 20706",
      "phone": "(301) 248-7742",
      "hours": "Saturday: 11:00:00 to 11:30:00; Sunday: 12:00:00 to 14:00:00; Wednesday\u2013Thursday: 13:00:00 to 14:30:00; Tuesday: 10:00:00 to 13:00:00",
      "appointment_needed": "Yes",
      "requirements": "Zip Code",
      "distribution_model": "",
      "notes": "",
      "cultures_served": []
    },
    {
      "name": "Monsenor Romero",
      "address": "3145 Mt Pleasant St NW Washington DC 20010",
      "phone": "(202) 333-8931",
      "hours": "Monday, Wednesday: 11:00:00 to 16:00:00",
      "appointment_needed": "No",
      "requirements": "",
      "distribution_model": "",
      "notes": "",
      "cultures_served": [
        "Latin American"
      ]
    },
    {
      "name": "Montgomery College - Germantown",
      "address": "20200 Observation Dr Germantown MD 20876",
      "phone": "",
      "hours": "Wednesday: 10:00:00 to 12:00:00",
      "appointment_needed": "No",
      "requirements": "",
      "distribution_model": "",
      "notes": "",
      "cultures_served": [
        "Central/South Asian,East African,East Asian,Eastern European,Latin American,Middle Eastern/ North African,West African"
      ]
    },
    {
      "name": "Montgomery College - Rockville",
      "address": "51 Mannakee St Rockville MD 20850",
      "phone": "",
      "hours": "Wednesday: 10:00:00 to 12:00:00",
      "appointment_needed": "No",
      "requirements": "",
      "distribution_model": "",
      "notes": "",
      "cultures_served": []
    },
    {
      "name": "Montgomery College - Takoma Park",
      "address": "7600 Takoma Ave Takoma Park MD 20912",
      "phone": "",
      "hours": "Wednesday: 14:00:00 to 15:30:00",
      "appointment_needed": "No",
      "requirements": "",
      "distribution_model": "",
      "notes": "",
      "cultures_served": []
    },
    {
      "name": "Montgomery County Family Center",
      "address": "12247 Georgia Ave. Silver Spring MD 20902",
      "phone": "(301) 942-1790",
      "hours": "Tuesday, Thursday: 09:00:00 to 16:00:00",
      "appointment_needed": "No",
      "requirements": "ID,Zip Code",
      "distribution_model": "",
      "notes": "",
      "cultures_served": []
    },
    {
      "name": "Montgomery County Muslim Foundation",
      "address": "11 Park Ave Gaithersburg MD 20877",
      "phone": "(301) 800-1597",
      "hours": "Sunday: 11:00:00 to 12:30:00",
      "appointment_needed": "Yes",
      "requirements": "ID,Income,Zip Code",
      "distribution_model": "",
      "notes": "",
      "cultures_served": [
        "Central/South Asian,East African,East Asian,Eastern European,Latin American,Middle Eastern/ North African,West African"
      ]
    },
    {
      "name": "Mother of Light Center",
      "address": "421 Clifford Ave Alexandria VA 22305",
      "phone": "(703) 508-5289",
      "hours": "Monday\u2013Saturday: 10:00:00 to 13:00:00",
      "appointment_needed": "Yes",
      "requirements": "Income,Zip Code",
      "distribution_model": "",
      "notes": "",
      "cultures_served": [
        "East African,Latin American"
      ]
    },
    {
      "name": "Mount Calvary Baptist Church",
      "address": "608 North Horners Lane Rockviille MD 20850",
      "phone": "(240) 351-7992",
      "hours": "Tuesday: 13:00:00 to Until Food Runs Out; Thursday: 16:30:00 to Until Food Runs Out",
      "appointment_needed": "No",
      "requirements": "Zip Code",
      "distribution_model": "",
      "notes": "",
      "cultures_served": [
        "East Asian,Latin American,West African"
      ]
    },
    {
      "name": "Mount Ennon Baptist Church",
      "address": "9832 Piscataway Road Clinton MD 20735",
      "phone": "(240) 599-6424",
      "hours": "Tuesday: 11:00:00 to 14:00:00; Saturday: 10:00:00 to 12:00:00",
      "appointment_needed": "No",
      "requirements": "ID,Income,Zip Code",
      "distribution_model": "",
      "notes": "",
      "cultures_served": [
        "Central/South Asian,East African,East Asian,Latin American,Middle Eastern/ North African,West African"
      ]
    },
    {
      "name": "Mount Moriah Baptist Church",
      "address": "1636 East Capital St NE Washington DC 20001",
      "phone": "(410) 271-5656",
      "hours": "Wednesday: 10:00:00 to 12:00:00",
      "appointment_needed": "No",
      "requirements": "ID",
      "distribution_model": "",
      "notes": "",
      "cultures_served": []
    },
    {
      "name": "Mount Olive Baptist Church",
      "address": "1601 13th Rd S Arlington VA 22204",
      "phone": "(703) 830-8769",
      "hours": "Saturday: 09:00:00 to 10:00:00, 10:00:00 to 14:00:00; Tuesday: 13:00:00 to 14:00:00",
      "appointment_needed": "Yes",
      "requirements": "",
      "distribution_model": "",
      "notes": "",
      "cultures_served": [
        "East African,East Asian,Latin American"
      ]
    },
    {
      "name": "Mount Olivet United Methodist Church",
      "address": "1500 N Glebe Rd Arlington VA 22207",
      "phone": "",
      "hours": "Saturday: 08:00:00 to 11:00:00",
      "appointment_needed": "No",
      "requirements": "",
      "distribution_model": "",
      "notes": "",
      "cultures_served": []
    },
    {
      "name": "Mount Rainier Seventh Day Adventist Spanish Church",
      "address": "6012 Ager Road Hyattsville MD 20782",
      "phone": "(240) 346-9272",
      "hours": "Wednesday: 19:00:00 to 21:00:00; Saturday: 14:30:00 to 17:30:00",
      "appointment_needed": "Yes",
      "requirements": "ID",
      "distribution_model": "",
      "notes": "",
      "cultures_served": [
        "East African,Eastern European,Latin American,West African"
      ]
    },
    {
      "name": "Mt. Calvary Catholic Church, Ladies of Charity Food Pantry",
      "address": "6706 Marlboro Pike Forestville MD 20747",
      "phone": "(301) 221-2546",
      "hours": "Thursday: 09:00:00 to 11:30:00",
      "appointment_needed": "Yes",
      "requirements": "ID",
      "distribution_model": "",
      "notes": "",
      "cultures_served": []
    },
    {
      "name": "Mt. Jezreel Baptist Church",
      "address": "420 University Blvd East Silver Spring MD 20901",
      "phone": "(301) 461-4257",
      "hours": "Saturday: 10:00:00 to 14:00:00",
      "appointment_needed": "No",
      "requirements": "",
      "distribution_model": "",
      "notes": "",
      "cultures_served": [
        "East African,East Asian,Latin American,Middle Eastern/ North African,West African"
      ]
    },
    {
      "name": "Muslim Community Center",
      "address": "15200 New Hampshire Ave. Silver Spring MD 20905",
      "phone": "(240) 784-0051",
      "hours": "Saturday: 09:00:00 to 11:00:00",
      "appointment_needed": "No",
      "requirements": "Zip Code",
      "distribution_model": "",
      "notes": "",
      "cultures_served": [
        "Central/South Asian,East African,East Asian,Eastern European,Latin American,Middle Eastern/ North African,West African"
      ]
    },
    {
      "name": "NW Community Food",
      "address": "4225 Connecticut AVE NW Washington DC DC 20008",
      "phone": "(202) 594-0399",
      "hours": "Sunday: 13:00:00 to 15:00:00",
      "appointment_needed": "No",
      "requirements": "",
      "distribution_model": "",
      "notes": "",
      "cultures_served": [
        "Central/South Asian,East Asian,Eastern European,Latin American,Middle Eastern/ North African,West African"
      ]
    },
    {
      "name": "National Baptist Memorial Church",
      "address": "1501 Columbia Rd NW Washington DC 20009",
      "phone": "(202) 841-3742",
      "hours": "Saturday: 09:00:00 to 12:00:00",
      "appointment_needed": "No",
      "requirements": "",
      "distribution_model": "",
      "notes": "",
      "cultures_served": [
        "Central/South Asian,East African,East Asian,Eastern European,Latin American,Middle Eastern/ North African,West African"
      ]
    },
    {
      "name": "National City Christian Church",
      "address": "5 Thomas Circle NW Washington DC 20005",
      "phone": "(202) 232-0323",
      "hours": "Wednesday: 10:00:00 to 13:00:00",
      "appointment_needed": "No",
      "requirements": "",
      "distribution_model": "",
      "notes": "",
      "cultures_served": [
        "Eastern European,Latin American,Middle Eastern/ North African,West African"
      ]
    },
    {
      "name": "New Hope Housing Kennedy Shelter",
      "address": "9155 Richmond Hwy Fort Belvoir VA 22060",
      "phone": "(703) 859-5750",
      "hours": "Monday\u2013Sunday: 08:00:00 to 16:00:00",
      "appointment_needed": "No",
      "requirements": "",
      "distribution_model": "",
      "notes": "",
      "cultures_served": []
    },
    {
      "name": "New Hope and Life Church of God, Inc.",
      "address": "8616 Edgeworth Drive Capitol Heights MD 20743",
      "phone": "(202) 689-4393",
      "hours": "Wednesday: 10:00:00 to Until Food Runs Out",
      "appointment_needed": "No",
      "requirements": "ID",
      "distribution_model": "",
      "notes": "",
      "cultures_served": []
    },
    {
      "name": "New Macedonia Baptist Church",
      "address": "4115 Alabama Ave SE  Washington DC 20019",
      "phone": "",
      "hours": "Wednesday: 09:00:00 to 11:00:00",
      "appointment_needed": "No",
      "requirements": "",
      "distribution_model": "",
      "notes": "",
      "cultures_served": []
    },
    {
      "name": "New Samaritan Baptist Church",
      "address": "1100 Florida Ave NE Washington DC 20002",
      "phone": "(202) 397-1870",
      "hours": "Wednesday: 10:00:00 to 13:00:00",
      "appointment_needed": "No",
      "requirements": "",
      "distribution_model": "",
      "notes": "",
      "cultures_served": []
    },
    {
      "name": "Nick's Place",
      "address": "4514 Lincoln Ave Beltsville MD 20705",
      "phone": "(301) 938-5876",
      "hours": "As Needed: As Needed to As Needed",
      "appointment_needed": "No",
      "requirements": "",
      "distribution_model": "",
      "notes": "",
      "cultures_served": []
    },
    {
      "name": "Nineteenth Street Baptist Church",
      "address": "4606 16th St NW Washington DC 20011",
      "phone": "(202) 829-2773",
      "hours": "Thursday: 10:00:00 to 13:00:00",
      "appointment_needed": "No",
      "requirements": "",
      "distribution_model": "",
      "notes": "",
      "cultures_served": [
        "Latin American,West African"
      ]
    },
    {
      "name": "No Limits Outreach Ministries",
      "address": "7721 Barlowe Rd Landover MD 20785",
      "phone": "(202) 341-5159",
      "hours": "Sunday: 12:30:00 to 13:30:00; Friday: 18:00:00 to 19:30:00; Tuesday, Thursday: 11:00:00 to 18:00:00",
      "appointment_needed": "Yes",
      "requirements": "ID",
      "distribution_model": "",
      "notes": "",
      "cultures_served": [
        "Latin American"
      ]
    },
    {
      "name": "North Capitol Collaborative, Inc.",
      "address": "3230 Pennsylvania Ave SE #202 Washington DC 20020",
      "phone": "(202) 588-1800",
      "hours": "Thursday: 10:00:00 to 14:00:00",
      "appointment_needed": "No",
      "requirements": "ID",
      "distribution_model": "",
      "notes": "",
      "cultures_served": [
        "East African,East Asian,Latin American,West African"
      ]
    },
    {
      "name": "Northeastern Presbyterian Church",
      "address": "2112 Varnum St. NE Washington DC 20018",
      "phone": "(202) 316-8744",
      "hours": "Saturday: 10:00:00 to 12:00:00",
      "appointment_needed": "No",
      "requirements": "",
      "distribution_model": "",
      "notes": "",
      "cultures_served": []
    },
    {
      "name": "Northern Virginia Family Service SERVE",
      "address": "10056 Dean Dr Manassas VA 20110",
      "phone": "",
      "hours": "Thursday: 09:30:00 to 10:30:00",
      "appointment_needed": "No",
      "requirements": "",
      "distribution_model": "",
      "notes": "",
      "cultures_served": []
    },
    {
      "name": "Northern Virginia Family Services SERVE",
      "address": "10056 Dean Dr Manassas VA 20110",
      "phone": "(571) 234-9450",
      "hours": "Friday: 09:30:00 to 11:30:00; Wednesday: 17:00:00 to 19:00:00; Tuesday: 09:30:00 to 11:30:00, 13:00:00 to 15:00:00; Thursday: 13:00:00 to 15:00:00, 21:30:00 to 11:30:00",
      "appointment_needed": "Yes",
      "requirements": "ID",
      "distribution_model": "",
      "notes": "",
      "cultures_served": []
    },
    {
      "name": "Northern Virginia Food Rescue",
      "address": "10535 Battleview Pkwy Manassas VA 20110",
      "phone": "(703) 822-5205",
      "hours": "Monday\u2013Friday: 08:00:00 to 14:00:00",
      "appointment_needed": "No",
      "requirements": "",
      "distribution_model": "",
      "notes": "",
      "cultures_served": [
        "Central/South Asian,East African,East Asian,Eastern European,Latin American,Middle Eastern/ North African,West African"
      ]
    },
    {
      "name": "Nourish Now",
      "address": "397 EAST GUDE DR Rockville MD 20850",
      "phone": "(240) 750-0747",
      "hours": "Thursday: 13:00:00 to 15:00:00; Monday, Wednesday: 12:30:00 to 14:30:00; Friday: 13:30:00 to 15:30:00; Tuesday: 12:00:00 to 14:00:00",
      "appointment_needed": "Yes",
      "requirements": "ID",
      "distribution_model": "",
      "notes": "",
      "cultures_served": [
        "Central/South Asian,East African,East Asian,Eastern European,Latin American,Middle Eastern/ North African,West African"
      ]
    },
    {
      "name": "Nourishing Bethesda",
      "address": "5020 Battery Lane Bethesda MD 20814",
      "phone": "(301) 437-2752",
      "hours": "Thursday: 18:00:00 to 20:00:00; Friday: 09:30:00 to 18:00:00",
      "appointment_needed": "Yes",
      "requirements": "ID",
      "distribution_model": "",
      "notes": "",
      "cultures_served": [
        "Central/South Asian,East Asian,Eastern European,Latin American,Middle Eastern/ North African,West African"
      ]
    },
    {
      "name": "Oak Chapel UMC",
      "address": "14500 Layhill Road Silver Spring MD 20906",
      "phone": "(240) 277-4426",
      "hours": "Saturday: 10:00:00 to 12:00:00; Thursday: 12:00:00 to 13:00:00; Wednesday: 11:00:00 to 14:00:00",
      "appointment_needed": "Yes",
      "requirements": "Zip Code",
      "distribution_model": "",
      "notes": "",
      "cultures_served": [
        "East Asian,Latin American,West African"
      ]
    },
    {
      "name": "Operation Earnie's Plate",
      "address": "8500 Mike Shapiro Dr Clinton MD 20735",
      "phone": "(301) 404-4461",
      "hours": "Saturday: 10:00:00 to 14:00:00; As Needed: 08:00:00 to 14:00:00, 10:00:00 to 14:00:00; Monday: 12:00:00 to 14:00:00; Wednesday: 08:00:00 to 14:00:00",
      "appointment_needed": "No",
      "requirements": "Zip Code",
      "distribution_model": "",
      "notes": "",
      "cultures_served": [
        "East African,Latin American,West African"
      ]
    },
    {
      "name": "Our Lady Queen of Peace Church",
      "address": "2700 19th Street South Arlington VA 22204",
      "phone": "(703) 979-5580",
      "hours": "Wednesday: 08:30:00 to 11:30:00",
      "appointment_needed": "No",
      "requirements": "",
      "distribution_model": "",
      "notes": "",
      "cultures_served": [
        "East African,East Asian,Eastern European,Latin American,Middle Eastern/ North African,West African"
      ]
    },
    {
      "name": "Our Lady of Perpetual Help Church",
      "address": "1600 Morris Rd SE Washington DC 20020",
      "phone": "(202) 678-4999",
      "hours": "Thursday: 10:30:00 to 12:30:00",
      "appointment_needed": "No",
      "requirements": "ID",
      "distribution_model": "",
      "notes": "",
      "cultures_served": []
    },
    {
      "name": "Our Savior Lutheran Church",
      "address": "13611 Laurel Bowie Road Laurel MD 20708",
      "phone": "(240) 462-8809",
      "hours": "Saturday: 09:00:00 to 11:00:00",
      "appointment_needed": "No",
      "requirements": "",
      "distribution_model": "",
      "notes": "",
      "cultures_served": [
        "Central/South Asian,Latin American"
      ]
    },
    {
      "name": "Oxon Hill Church of Christ",
      "address": "4201 Brinkley Road Temple Hills MD 20748",
      "phone": "(301) 875-9322",
      "hours": "Saturday: 11:00:00 to 13:00:00; Wednesday: 09:00:00 to 11:00:00",
      "appointment_needed": "Yes",
      "requirements": "",
      "distribution_model": "",
      "notes": "",
      "cultures_served": []
    },
    {
      "name": "Oxon Hill UMC",
      "address": "6400 Livingston Road Oxon Hill MD 20745",
      "phone": "(240) 687-1409",
      "hours": "Thursday: 11:00:00 to 13:00:00",
      "appointment_needed": "No",
      "requirements": "",
      "distribution_model": "",
      "notes": "",
      "cultures_served": [
        "Central/South Asian,East Asian,Latin American"
      ]
    },
    {
      "name": "Paramount Baptist Church",
      "address": "3924 4th St SE Washington DC 20032",
      "phone": "(202) 562-6339",
      "hours": "Wednesday: 11:00:00 to 12:00:00",
      "appointment_needed": "Yes",
      "requirements": "ID",
      "distribution_model": "",
      "notes": "",
      "cultures_served": []
    },
    {
      "name": "Park Road Community Church",
      "address": "1019 Park Road NW Washington DC 20010",
      "phone": "(202) 740-7890",
      "hours": "Tuesday: 12:00:00 to 14:00:00",
      "appointment_needed": "No",
      "requirements": "",
      "distribution_model": "",
      "notes": "",
      "cultures_served": []
    },
    {
      "name": "Park Shirlington Apartments",
      "address": "4500 31st St S Arlington VA 22206",
      "phone": "",
      "hours": "Wednesday: 14:00:00 to 16:00:00",
      "appointment_needed": "No",
      "requirements": "",
      "distribution_model": "",
      "notes": "",
      "cultures_served": []
    },
    {
      "name": "Pin Oak Village Senior",
      "address": "16010 Excalibur Road Bowie MD 20716",
      "phone": "",
      "hours": "Monday: 09:30:00 to 11:30:00",
      "appointment_needed": "No",
      "requirements": "",
      "distribution_model": "",
      "notes": "",
      "cultures_served": []
    },
    {
      "name": "Plenty to Eat",
      "address": "2315 18th Place NE Washington DC 20018",
      "phone": "(202) 556-0662",
      "hours": "Wednesday: 11:00:00 to 15:00:00; Tuesday: 10:00:00 to 15:00:00",
      "appointment_needed": "No",
      "requirements": "ID,Zip Code",
      "distribution_model": "",
      "notes": "",
      "cultures_served": [
        "Central/South Asian,Latin American,Middle Eastern/ North African,West African"
      ]
    },
    {
      "name": "Ports Town Church",
      "address": "4500 57th Ave Bladensburg MD 20717",
      "phone": "(301) 525-6328",
      "hours": "Monday: 18:00:00 to 21:00:00; Sunday: 11:00:00 to 13:00:00",
      "appointment_needed": "No",
      "requirements": "",
      "distribution_model": "",
      "notes": "",
      "cultures_served": [
        "East African,Latin American,West African"
      ]
    },
    {
      "name": "Prince Emmanuel All Nations SDA Church",
      "address": "1925 Mitchellville Rd Bowie MD 20716",
      "phone": "(301) 648-4884",
      "hours": "Sunday: 13:00:00 to 15:00:00",
      "appointment_needed": "No",
      "requirements": "ID",
      "distribution_model": "",
      "notes": "",
      "cultures_served": [
        "East African,Eastern European,Latin American,West African"
      ]
    },
    {
      "name": "Prince George's County DSS",
      "address": "805 Brightseat Rd Landover MD 20785",
      "phone": "(301) 909-6364",
      "hours": "Monday\u2013Friday: 08:30:00 to 16:30:00",
      "appointment_needed": "Yes",
      "requirements": "ID",
      "distribution_model": "",
      "notes": "",
      "cultures_served": [
        "Central/South Asian,East African,East Asian,Eastern European,Latin American,Middle Eastern/ North African,West African"
      ]
    },
    {
      "name": "Prince George's Dept of Social Services SEED",
      "address": "5819 Eastpine Dr Riverdale MD 20737",
      "phone": "",
      "hours": "Monday: 10:00:00 to 12:00:00",
      "appointment_needed": "No",
      "requirements": "",
      "distribution_model": "",
      "notes": "",
      "cultures_served": []
    },
    {
      "name": "Prince George's Dept of Social Services Shabach",
      "address": "403 Brightseat road Landover MD 20785",
      "phone": "",
      "hours": "Monday: 09:30:00 to 11:30:00",
      "appointment_needed": "No",
      "requirements": "",
      "distribution_model": "",
      "notes": "",
      "cultures_served": []
    },
    {
      "name": "Prince Georges Social Services - Gwynn Park High School",
      "address": "13800 Brandywine Road Brandywine MD 20613",
      "phone": "",
      "hours": "Tuesday: 16:00:00 to 18:00:00",
      "appointment_needed": "No",
      "requirements": "",
      "distribution_model": "",
      "notes": "",
      "cultures_served": []
    },
    {
      "name": "Purity Baptist Church",
      "address": "1325 Maryland Ave NE Washington DC 20002",
      "phone": "(202) 397-4333",
      "hours": "Thursday: 10:00:00 to 11:00:00",
      "appointment_needed": "No",
      "requirements": "ID",
      "distribution_model": "",
      "notes": "",
      "cultures_served": [
        "East African,East Asian,Latin American,West African"
      ]
    },
    {
      "name": "R Street Apartments",
      "address": "1436 R St NW Washington DC 20009",
      "phone": "(202) 621-1617",
      "hours": "Thursday: 11:00:00 to 16:00:00",
      "appointment_needed": "No",
      "requirements": "",
      "distribution_model": "",
      "notes": "",
      "cultures_served": [
        "Latin American,West African"
      ]
    },
    {
      "name": "RCCG New Wine Assembly",
      "address": "1625 Olive Street NE Washington DC 20019",
      "phone": "(202) 398-2211",
      "hours": "Saturday: 10:00:00 to 12:00:00",
      "appointment_needed": "No",
      "requirements": "",
      "distribution_model": "",
      "notes": "",
      "cultures_served": [
        "Latin American,West African"
      ]
    },
    {
      "name": "Rainbow Community Development Center",
      "address": "2120 Industrial Parkway A Silver Spring MD 20904",
      "phone": "(301) 625-2561",
      "hours": "Thursday: 09:00:00 to 12:00:00; Saturday: 09:00:00 to 11:00:00",
      "appointment_needed": "Yes",
      "requirements": "ID,Income,Zip Code",
      "distribution_model": "",
      "notes": "",
      "cultures_served": [
        "Central/South Asian,East African,East Asian,Eastern European,Latin American,Middle Eastern/ North African,West African"
      ]
    },
    {
      "name": "Recovery Program Solutions of Virginia",
      "address": "7611 Little River Turnpike Suite E100 Annandale VA 22003",
      "phone": "(703) 939-0869",
      "hours": "Monday\u2013Wednesday: 10:00:00 to 16:00:00",
      "appointment_needed": "No",
      "requirements": "Zip Code",
      "distribution_model": "",
      "notes": "",
      "cultures_served": [
        "Central/South Asian,East African,East Asian,Eastern European,Latin American,Middle Eastern/ North African,West African"
      ]
    },
    {
      "name": "Reid Temple AME Church",
      "address": "11400 Glenn Dale Blvd Glenn Dale MD 20769",
      "phone": "(443) 474-3673",
      "hours": "Saturday: 10:00:00 to 12:00:00",
      "appointment_needed": "No",
      "requirements": "",
      "distribution_model": "",
      "notes": "",
      "cultures_served": [
        "East African,East Asian,Latin American,Middle Eastern/ North African,West African"
      ]
    },
    {
      "name": "Restoration Church",
      "address": "119 Centerway Dr. Greenbelt MD 20770",
      "phone": "(240) 645-7177",
      "hours": "Sunday: 11:30:00 to 12:30:00; Wednesday: 11:00:00 to 13:00:00",
      "appointment_needed": "No",
      "requirements": "ID,Income",
      "distribution_model": "",
      "notes": "",
      "cultures_served": [
        "Central/South Asian,East African,East Asian,Latin American,Middle Eastern/ North African,West African"
      ]
    },
    {
      "name": "Resurrection Bible Church",
      "address": "10835 Lanham-Severn Road Glenn Dale MD 20769",
      "phone": "(301) 437-4958",
      "hours": "Saturday: 09:30:00 to 11:30:00",
      "appointment_needed": "Yes",
      "requirements": "",
      "distribution_model": "",
      "notes": "",
      "cultures_served": [
        "Latin American"
      ]
    },
    {
      "name": "Revival Baptist Ministries INT",
      "address": "8174 Richmond Hwy Alexandria VA 22309",
      "phone": "(703) 944-3057",
      "hours": "Saturday: 07:00:00 to 09:00:00",
      "appointment_needed": "No",
      "requirements": "Income",
      "distribution_model": "",
      "notes": "",
      "cultures_served": [
        "Central/South Asian,East African,East Asian,Eastern European,Latin American,Middle Eastern/ North African,West African"
      ]
    },
    {
      "name": "Rising Hope Methodist Mission Church",
      "address": "8220 Russell Road Alexandria VA 22309",
      "phone": "(719) 310-3277",
      "hours": "Tuesday\u2013Thursday: 13:30:00 to 16:30:00",
      "appointment_needed": "Yes",
      "requirements": "Zip Code",
      "distribution_model": "",
      "notes": "",
      "cultures_served": [
        "Central/South Asian,East African,East Asian,Latin American,Middle Eastern/ North African,West African"
      ]
    },
    {
      "name": "Rising Hope Mission Church",
      "address": "8220 Russell Rd Alexandria VA 22309",
      "phone": "",
      "hours": "Tuesday: 12:30:00 to 14:30:00",
      "appointment_needed": "No",
      "requirements": "",
      "distribution_model": "",
      "notes": "",
      "cultures_served": [
        "Central/South Asian,East Asian,Eastern European,Latin American,Middle Eastern/ North African,West African"
      ]
    },
    {
      "name": "River Jordan, Inc.",
      "address": "15809 Livingston Road Accokeek MD 20607",
      "phone": "(301) 873-8704",
      "hours": "Wednesday: 16:00:00 to Until Food Runs Out; Saturday: 09:00:00 to Until Food Runs Out",
      "appointment_needed": "No",
      "requirements": "",
      "distribution_model": "",
      "notes": "",
      "cultures_served": [
        "Latin American,West African"
      ]
    },
    {
      "name": "River of Life Redeemed Christian Church of God",
      "address": "5617 54th Ave. Riverdale MD 20737",
      "phone": "(301) 779-4605",
      "hours": "Wednesday: 16:30:00 to Until Food Runs Out",
      "appointment_needed": "No",
      "requirements": "",
      "distribution_model": "",
      "notes": "",
      "cultures_served": []
    },
    {
      "name": "Royal Missionary Baptist Church",
      "address": "8631 Engleside Office Park Alexandria VA 22309",
      "phone": "(571) 481-1896",
      "hours": "Saturday: 08:00:00 to 13:00:00; Sunday: 13:00:00 to 14:30:00",
      "appointment_needed": "No",
      "requirements": "Income",
      "distribution_model": "",
      "notes": "",
      "cultures_served": [
        "Central/South Asian,East African,East Asian,Latin American,Middle Eastern/ North African,West African"
      ]
    },
    {
      "name": "Royalhouse Chapel International",
      "address": "7911 Braygreen Road Laurel MD 20707",
      "phone": "(301) 437-9441",
      "hours": "Tuesday: 12:30:00 to 14:00:00; Saturday: 09:00:00 to 12:00:00",
      "appointment_needed": "Yes",
      "requirements": "Zip Code",
      "distribution_model": "",
      "notes": "",
      "cultures_served": [
        "East African,Latin American,West African"
      ]
    },
    {
      "name": "Sacred Heart Catholic Church",
      "address": "12975 Purcell Road Manassas VA 20112",
      "phone": "(703) 590-0030",
      "hours": "Saturday: 08:00:00 to 09:30:00",
      "appointment_needed": "No",
      "requirements": "",
      "distribution_model": "",
      "notes": "",
      "cultures_served": []
    },
    {
      "name": "Saint Benedict The Moor",
      "address": "320 21st Street NE Washington DC 20002",
      "phone": "",
      "hours": "Monday: 09:30:00 to 12:00:00",
      "appointment_needed": "No",
      "requirements": "ID,Income",
      "distribution_model": "",
      "notes": "",
      "cultures_served": [
        "East African,Latin American,West African"
      ]
    },
    {
      "name": "Salvation Army  (PW County)",
      "address": "1483 Old Bridge Road #102 Woodbridge VA 22192",
      "phone": "(703) 580-8991",
      "hours": "Monday, Wednesday\u2013Thursday: 10:00:00 to 12:00:00",
      "appointment_needed": "No",
      "requirements": "ID",
      "distribution_model": "",
      "notes": "",
      "cultures_served": [
        "Central/South Asian,East African,East Asian,Eastern European,Latin American,Middle Eastern/ North African,West African"
      ]
    },
    {
      "name": "Salvation Army (Fairfax)",
      "address": "4915 Ox Road Fairfax VA 22030",
      "phone": "(703) 385-8700",
      "hours": "Tuesday\u2013Wednesday: 09:00:00 to 16:00:00; Monday: 12:00:00 to 15:00:00",
      "appointment_needed": "No",
      "requirements": "ID,Income",
      "distribution_model": "",
      "notes": "",
      "cultures_served": [
        "Central/South Asian,East African,East Asian,Eastern European,Latin American,Middle Eastern/ North African,West African"
      ]
    },
    {
      "name": "Salvation Army Arlington Corps",
      "address": "518 S. Glebe Rd Arlington VA 22204",
      "phone": "(703) 979-3380",
      "hours": "Thursday: 09:30:00 to 11:30:00, 09:30:00 to 15:00:00",
      "appointment_needed": "No",
      "requirements": "Income",
      "distribution_model": "",
      "notes": "",
      "cultures_served": [
        "Central/South Asian,East African,East Asian,Latin American,Middle Eastern/ North African,West African"
      ]
    },
    {
      "name": "SeVerna",
      "address": "43 K St NW Washington DC 20001",
      "phone": "",
      "hours": "Wednesday: 10:00:00 to 12:00:00",
      "appointment_needed": "No",
      "requirements": "",
      "distribution_model": "",
      "notes": "",
      "cultures_served": []
    },
    {
      "name": "Second Baptist Church Southwest",
      "address": "5501 Silver Hill Road District Heights MD 20747",
      "phone": "(301) 420-2929",
      "hours": "Saturday: 07:30:00 to 11:30:00",
      "appointment_needed": "No",
      "requirements": "Income",
      "distribution_model": "",
      "notes": "",
      "cultures_served": [
        "East African,East Asian,Latin American,Middle Eastern/ North African,West African"
      ]
    },
    {
      "name": "Seneca Creek Community Church (Gaithersburg CARES)",
      "address": "13 Firstfield Rd Gaithersburg MD 20878",
      "phone": "(301) 793-3321",
      "hours": "Tuesday, Thursday: 10:00:00 to 16:30:00; Friday: 13:00:00 to 16:00:00; Saturday: 09:30:00 to 12:30:00",
      "appointment_needed": "Yes",
      "requirements": "",
      "distribution_model": "",
      "notes": "",
      "cultures_served": [
        "Central/South Asian,East African,East Asian,Eastern European,Latin American,Middle Eastern/ North African,West African"
      ]
    },
    {
      "name": "SevaTruck Foundation",
      "address": "2815 Old Lee Hwy Fairfax Fairfax VA 22031",
      "phone": "(202) 550-3018",
      "hours": "Monday\u2013Wednesday: 15:00:00 to 17:00:00; Thursday: 12:00:00 to 14:00:00, 15:00:00 to 17:00:00; Friday: 12:00:00 to 13:00:00",
      "appointment_needed": "Yes",
      "requirements": "",
      "distribution_model": "",
      "notes": "",
      "cultures_served": [
        "Central/South Asian,East Asian,Latin American"
      ]
    },
    {
      "name": "Shabach Emergency Empowerment Center",
      "address": "403 Brightseat Rd Landover MD 20785",
      "phone": "(301) 237-6353",
      "hours": "Monday\u2013Friday: 09:00:00 to 15:00:00; Saturday: 09:30:00 to 14:30:00",
      "appointment_needed": "Yes",
      "requirements": "ID",
      "distribution_model": "",
      "notes": "",
      "cultures_served": [
        "Central/South Asian,East African,East Asian,Eastern European,Latin American,Middle Eastern/ North African,West African"
      ]
    },
    {
      "name": "She Believes in Me",
      "address": "761 Elden Street Herndon VA 20170",
      "phone": "(703) 328-2512",
      "hours": "Monday, Wednesday: 10:00:00 to 11:00:00; Saturday: 09:30:00 to 10:30:00",
      "appointment_needed": "No",
      "requirements": "Zip Code",
      "distribution_model": "",
      "notes": "",
      "cultures_served": [
        "Central/South Asian,East African,East Asian,Latin American,Middle Eastern/ North African,West African"
      ]
    },
    {
      "name": "Shepherd's Table - Progress Place Building",
      "address": "8106 Georgia Avenue Silver Springs MD 20910",
      "phone": "(301) 585-6463",
      "hours": "Saturday\u2013Sunday: 07:30:00 to 19:00:00; Monday\u2013Friday: 06:00:00 to 19:00:00",
      "appointment_needed": "Yes",
      "requirements": "",
      "distribution_model": "",
      "notes": "",
      "cultures_served": [
        "Central/South Asian,East African,East Asian,Eastern European,Latin American,Middle Eastern/ North African,West African"
      ]
    },
    {
      "name": "Shiloh Church Of God 7 Day",
      "address": "5701 Eastern Ave Hyattsville MD 20781",
      "phone": "(443) 531-1955",
      "hours": "Saturday: 16:00:00 to 18:00:00; Thursday: 13:00:00 to 16:00:00",
      "appointment_needed": "No",
      "requirements": "",
      "distribution_model": "",
      "notes": "",
      "cultures_served": [
        "East African,Latin American,West African"
      ]
    },
    {
      "name": "Silver Spring Christian Reformed Church",
      "address": "1501 Arcola Ave Silver Spring MD 20902",
      "phone": "(301) 284-8401",
      "hours": "Tuesday: 15:00:00 to 17:00:00, 16:00:00 to 19:00:00",
      "appointment_needed": "No",
      "requirements": "",
      "distribution_model": "",
      "notes": "",
      "cultures_served": [
        "Central/South Asian,East African,East Asian,Eastern European,Latin American,Middle Eastern/ North African,West African"
      ]
    },
    {
      "name": "Silver Spring UMC",
      "address": "8900 Georgia Ave Silver Spring MD 20901",
      "phone": "",
      "hours": "Thursday: 11:00:00 to 14:00:00",
      "appointment_needed": "No",
      "requirements": "",
      "distribution_model": "",
      "notes": "",
      "cultures_served": [
        "Latin American,West African"
      ]
    },
    {
      "name": "Sixth Church Food Closet",
      "address": "5413 16th St  NW Washington DC 20011",
      "phone": "(202) 723-5377",
      "hours": "Wednesday: 11:00:00 to 13:00:00",
      "appointment_needed": "No",
      "requirements": "",
      "distribution_model": "",
      "notes": "",
      "cultures_served": [
        "East African,East Asian,Latin American,Middle Eastern/ North African,West African"
      ]
    },
    {
      "name": "Small Things Matter, Inc",
      "address": "201 Ethan Allen Avenue Takoma Park MD 20912",
      "phone": "(202) 669-8550",
      "hours": "Tuesday: 16:00:00 to 18:00:00; Saturday: 12:00:00 to 15:00:00; Thursday: 07:30:00 to 12:00:00, 12:00:00 to 15:00:00; Friday: 08:30:00 to 12:00:00, 09:30:00 to 11:30:00; Sunday: 13:00:00 to 16:00:00",
      "appointment_needed": "Yes",
      "requirements": "ID,Zip Code",
      "distribution_model": "",
      "notes": "",
      "cultures_served": [
        "Central/South Asian,East African,East Asian,Latin American,Middle Eastern/ North African,West African"
      ]
    },
    {
      "name": "So Others Might Eat",
      "address": "71 O ST NW Washington DC 20002",
      "phone": "(202) 235-1472",
      "hours": "Monday: 09:00:00 to 11:00:00, 12:00:00 to 14:00:00; Tuesday\u2013Friday: 09:00:00 to 11:00:00",
      "appointment_needed": "No",
      "requirements": "ID,Income,Zip Code",
      "distribution_model": "",
      "notes": "",
      "cultures_served": [
        "Central/South Asian,East African,East Asian,Eastern European,Latin American,Middle Eastern/ North African,West African"
      ]
    },
    {
      "name": "So What Else, Inc",
      "address": "4924 wyaconda road  Rockville  MD 20852",
      "phone": "(240) 705-4345",
      "hours": "Tuesday\u2013Thursday: 10:00:00 to 18:00:00; Monday, Friday: 08:00:00 to 16:00:00; Saturday: 06:00:00 to 12:00:00",
      "appointment_needed": "Yes",
      "requirements": "",
      "distribution_model": "",
      "notes": "",
      "cultures_served": [
        "Central/South Asian,East African,East Asian,Eastern European,Latin American,Middle Eastern/ North African,West African"
      ]
    },
    {
      "name": "South Lakes High School PTSA Food Pantry : South Lakes High School PTSA Food Pantry",
      "address": "1133 Reston AVE Herndon VA 20170",
      "phone": "(703) 216-6928",
      "hours": "Thursday: 14:30:00 to 15:30:00, 16:30:00 to 17:30:00",
      "appointment_needed": "No",
      "requirements": "Zip Code",
      "distribution_model": "",
      "notes": "",
      "cultures_served": []
    },
    {
      "name": "Southern Friendship Missionary Baptist Church",
      "address": "4444 Branch Avenue Temple Hills MD 20748",
      "phone": "(301) 523-6090",
      "hours": "Tuesday: 09:00:00 to 13:00:00, 09:30:00 to 11:30:00, 10:00:00 to 13:00:00",
      "appointment_needed": "No",
      "requirements": "",
      "distribution_model": "",
      "notes": "",
      "cultures_served": [
        "Latin American"
      ]
    },
    {
      "name": "Southern Hills Community Center",
      "address": "4212 4th St SE Washington DC 20032",
      "phone": "",
      "hours": "Tuesday: 11:00:00 to 14:00:00",
      "appointment_needed": "No",
      "requirements": "",
      "distribution_model": "",
      "notes": "",
      "cultures_served": []
    },
    {
      "name": "Sowing Empowerment & Economic Development, Inc.",
      "address": "5819 Eastpine Dr Riverdale MD 20737",
      "phone": "(301) 458-9808",
      "hours": "Wednesday: 12:00:00 to 14:30:00",
      "appointment_needed": "No",
      "requirements": "ID",
      "distribution_model": "",
      "notes": "",
      "cultures_served": [
        "Central/South Asian,East African,East Asian,Latin American,Middle Eastern/ North African,West African"
      ]
    },
    {
      "name": "Spanish Catholic Center",
      "address": "1618 Monroe St. NW Washington DC 20010",
      "phone": "",
      "hours": "Wednesday: 10:00:00 to 11:30:00, 10:00:00 to 16:00:00; Monday\u2013Tuesday, Thursday: 10:00:00 to 16:00:00",
      "appointment_needed": "No",
      "requirements": "Zip Code",
      "distribution_model": "",
      "notes": "",
      "cultures_served": [
        "Central/South Asian,East African,East Asian,Latin American,West African"
      ]
    },
    {
      "name": "Springfield Christian Church",
      "address": "5407 Backlick Rd Springfield VA 22151",
      "phone": "(703) 507-6689",
      "hours": "Thursday: 13:30:00 to 16:30:00",
      "appointment_needed": "No",
      "requirements": "Income",
      "distribution_model": "",
      "notes": "",
      "cultures_served": [
        "Central/South Asian,East African,East Asian,Eastern European,Latin American,Middle Eastern/ North African,West African"
      ]
    },
    {
      "name": "St. Anne's Episcopal Church ( Food Pantry)",
      "address": "1700 Wainwright Drive Reston VA 20190",
      "phone": "(925) 323-7084",
      "hours": "Thursday: 11:30:00 to 13:00:00",
      "appointment_needed": "No",
      "requirements": "",
      "distribution_model": "",
      "notes": "",
      "cultures_served": [
        "Central/South Asian,East African,East Asian,Latin American,West African"
      ]
    },
    {
      "name": "St. Anthony of Padua Catholic Church",
      "address": "3305 Glen Carlyn Rd Falls Church VA 22041",
      "phone": "(571) 471-3194",
      "hours": "Wednesday: 10:00:00 to 13:00:00, 10:00:00 to 14:00:00; Monday: 10:00:00 to 13:00:00",
      "appointment_needed": "No",
      "requirements": "Income",
      "distribution_model": "",
      "notes": "",
      "cultures_served": [
        "Central/South Asian,East African,East Asian,Eastern European,Latin American,Middle Eastern/ North African,West African"
      ]
    },
    {
      "name": "St. Camillus Catholic Church",
      "address": "1600 Saint Camillus Drive  Silver Spring MD 20903",
      "phone": "(301) 452-4233",
      "hours": "Friday: 16:00:00 to 18:00:00; Saturday: 10:00:00 to 12:00:00",
      "appointment_needed": "No",
      "requirements": "ID",
      "distribution_model": "",
      "notes": "",
      "cultures_served": [
        "Central/South Asian,East Asian,Eastern European,Latin American,Middle Eastern/ North African,West African"
      ]
    },
    {
      "name": "St. Francis Xavier Church Food Pantry",
      "address": "2815 O street SE Washington DC 20020",
      "phone": "(202) 251-7692",
      "hours": "Saturday: 09:00:00 to 11:30:00",
      "appointment_needed": "No",
      "requirements": "ID",
      "distribution_model": "",
      "notes": "",
      "cultures_served": [
        "Latin American"
      ]
    },
    {
      "name": "St. John's Community Service Center",
      "address": "7611 Little River Turnpike Annandale VA 22003",
      "phone": "(571) 283-9231",
      "hours": "Monday\u2013Tuesday, Thursday\u2013Friday: 10:00:00 to 16:00:00; Wednesday: 10:00:00 to 13:00:00; Saturday: As Needed to As Needed",
      "appointment_needed": "Yes",
      "requirements": "",
      "distribution_model": "",
      "notes": "",
      "cultures_served": []
    },
    {
      "name": "St. Joseph Catholic Church",
      "address": "2020 St Joseph Drive  Largo MD 20774",
      "phone": "(301) 773-0102",
      "hours": "Saturday: 11:00:00 to 12:00:00",
      "appointment_needed": "Yes",
      "requirements": "Income",
      "distribution_model": "",
      "notes": "",
      "cultures_served": [
        "West African"
      ]
    },
    {
      "name": "St. Jude Catholic Church",
      "address": "12701 Veirs Mill Rockville MD 20853",
      "phone": "",
      "hours": "Saturday: 08:00:00 to 09:30:00",
      "appointment_needed": "No",
      "requirements": "ID,Zip Code",
      "distribution_model": "",
      "notes": "",
      "cultures_served": [
        "East Asian,Eastern European,Latin American,Middle Eastern/ North African"
      ]
    },
    {
      "name": "St. Luke Church",
      "address": "4925 East Capitol St SE Washington DC 20019",
      "phone": "",
      "hours": "Wednesday: 09:00:00 to 11:00:00",
      "appointment_needed": "No",
      "requirements": "",
      "distribution_model": "",
      "notes": "",
      "cultures_served": []
    },
    {
      "name": "St. Margaret of Scotland Catholic Church",
      "address": "408 Addison Road, South Capitol Heights MD 20743",
      "phone": "(301) 336-3344",
      "hours": "Saturday: 09:00:00 to 12:00:00",
      "appointment_needed": "No",
      "requirements": "ID",
      "distribution_model": "",
      "notes": "",
      "cultures_served": [
        "Latin American"
      ]
    },
    {
      "name": "St. Mark The Evangelist Catholic Church",
      "address": "7501 Adelphi Road Hyattsville MD 20783",
      "phone": "(301) 852-3816",
      "hours": "Tuesday: 09:30:00 to 12:00:00",
      "appointment_needed": "No",
      "requirements": "ID",
      "distribution_model": "",
      "notes": "",
      "cultures_served": [
        "Central/South Asian,East African,East Asian,Latin American,Middle Eastern/ North African,West African"
      ]
    },
    {
      "name": "St. Martins Social Service",
      "address": "1908 North Capitol Street NW Washington DC 20002",
      "phone": "(202) 232-1144",
      "hours": "Wednesday: 10:00:00 to 11:30:00",
      "appointment_needed": "No",
      "requirements": "",
      "distribution_model": "",
      "notes": "",
      "cultures_served": []
    },
    {
      "name": "St. Matthews Ken Jackson Food Closet",
      "address": "8617 Little River Turnpike Annandale VA 22003",
      "phone": "(703) 978-3500",
      "hours": "Monday: 17:00:00 to 18:30:00; Friday: 09:00:00 to 10:30:00",
      "appointment_needed": "No",
      "requirements": "ID",
      "distribution_model": "",
      "notes": "",
      "cultures_served": [
        "East Asian,Latin American,Middle Eastern/ North African,West African"
      ]
    },
    {
      "name": "St. Matthias Catholic Church",
      "address": "9475 Annapolis Lanham MD 20706",
      "phone": "(301) 459-4814",
      "hours": "As Needed: 08:00:00 to 12:00:00; Friday: 09:00:00 to Until Food Runs Out",
      "appointment_needed": "No",
      "requirements": "ID",
      "distribution_model": "",
      "notes": "",
      "cultures_served": [
        "Latin American,West African"
      ]
    },
    {
      "name": "St. Michael and All Angels",
      "address": "8501 New Hampshire Ave  Adelphi MD  20783",
      "phone": "(240) 882-0274",
      "hours": "Friday: 09:30:00 to 11:30:00; Saturday: 14:00:00 to 18:00:00",
      "appointment_needed": "Yes",
      "requirements": "",
      "distribution_model": "",
      "notes": "",
      "cultures_served": [
        "East African,East Asian,Eastern European,Latin American,Middle Eastern/ North African,West African"
      ]
    },
    {
      "name": "St. Paul UMC",
      "address": "6634 St. Barnabas Road Oxon Hill  MD 20745",
      "phone": "2 (440) 460-3401",
      "hours": "Thursday: 13:00:00 to 15:00:00",
      "appointment_needed": "Yes",
      "requirements": "ID,Income,Zip Code",
      "distribution_model": "",
      "notes": "",
      "cultures_served": []
    },
    {
      "name": "St. Paul United Methodist Church",
      "address": "1400 G St Woodbridge  VA 22191",
      "phone": "(703) 568-5694",
      "hours": "Saturday: 07:30:00 to 10:30:00; Thursday: 14:30:00 to 17:30:00",
      "appointment_needed": "No",
      "requirements": "Income",
      "distribution_model": "",
      "notes": "",
      "cultures_served": [
        "Central/South Asian,Latin American,Middle Eastern/ North African,West African"
      ]
    },
    {
      "name": "St. Paul's Lutheran Church",
      "address": "4900 Connecticut Ave NW  Washington DC  20008",
      "phone": "(202) 966-5489",
      "hours": "Saturday: 10:00:00 to 12:00:00",
      "appointment_needed": "No",
      "requirements": "",
      "distribution_model": "",
      "notes": "",
      "cultures_served": [
        "East Asian,Eastern European,Latin American,West African"
      ]
    },
    {
      "name": "St. Peters in the Woods",
      "address": "5911 Fairview Woods Drive Fairfax Station VA 22039",
      "phone": "(703) 503-9210",
      "hours": "Saturday: 11:00:00 to 11:30:00",
      "appointment_needed": "No",
      "requirements": "",
      "distribution_model": "",
      "notes": "",
      "cultures_served": [
        "Latin American,Middle Eastern/ North African,West African"
      ]
    },
    {
      "name": "St. Philip's Episcopal Church",
      "address": "522 Main Street Laurel MD 20707",
      "phone": "(301) 776-5151",
      "hours": "Sunday: 09:00:00 to 12:00:00",
      "appointment_needed": "No",
      "requirements": "",
      "distribution_model": "",
      "notes": "",
      "cultures_served": [
        "East African,Latin American,Middle Eastern/ North African,West African"
      ]
    },
    {
      "name": "St. Stephen's Baptist Church",
      "address": "5757 Temple Hill Road Camp Springs MD 20748",
      "phone": "(240) 350-8132",
      "hours": "Tuesday: 11:00:00 to 15:00:00",
      "appointment_needed": "No",
      "requirements": "Income,Zip Code",
      "distribution_model": "",
      "notes": "",
      "cultures_served": [
        "Central/South Asian,East African,East Asian,Eastern European,Latin American,Middle Eastern/ North African,West African"
      ]
    },
    {
      "name": "St. Stephen's UMC",
      "address": "9203 Braddock Rd  Burke  VA 22015",
      "phone": "(703) 978-8724",
      "hours": "Saturday: 07:00:00 to 09:00:00; Friday: 16:00:00 to 18:00:00; As Needed: 09:00:00 to 16:00:00",
      "appointment_needed": "No",
      "requirements": "Zip Code",
      "distribution_model": "",
      "notes": "",
      "cultures_served": [
        "Central/South Asian,East African,East Asian,Eastern European,Latin American,Middle Eastern/ North African,West African"
      ]
    },
    {
      "name": "St. Stephen's United Methodist Church",
      "address": "9203 Braddock Rd Burke VA 22015",
      "phone": "",
      "hours": "Friday: 17:00:00 to 18:00:00",
      "appointment_needed": "No",
      "requirements": "",
      "distribution_model": "",
      "notes": "",
      "cultures_served": []
    },
    {
      "name": "St. Thomas United Methodist Church",
      "address": "8899 Sudley Road Manassas VA 20110",
      "phone": "(703) 368-5161",
      "hours": "Saturday: 09:00:00 to 11:00:00",
      "appointment_needed": "No",
      "requirements": "",
      "distribution_model": "",
      "notes": "",
      "cultures_served": [
        "Central/South Asian,East Asian,Latin American,Middle Eastern/ North African"
      ]
    },
    {
      "name": "Sterling United Methodist Church",
      "address": "304 East Church Road Sterling VA 20164",
      "phone": "(703) 430-6455",
      "hours": "Saturday: 07:30:00 to 11:00:00",
      "appointment_needed": "No",
      "requirements": "Income",
      "distribution_model": "",
      "notes": "",
      "cultures_served": [
        "Central/South Asian,East Asian,Eastern European,Latin American,Middle Eastern/ North African,West African"
      ]
    },
    {
      "name": "Sydenstricker UMC",
      "address": "8508 Hooes Road Springfield VA 22153",
      "phone": "(571) 235-6048",
      "hours": "Tuesday: 15:00:00 to 18:00:00",
      "appointment_needed": "No",
      "requirements": "",
      "distribution_model": "",
      "notes": "",
      "cultures_served": [
        "Central/South Asian,East Asian,Latin American,West African"
      ]
    },
    {
      "name": "T&T Provider My Little World",
      "address": "2909 North Capitol St NE Washington DC 20002",
      "phone": "(202) 607-0629",
      "hours": "Monday\u2013Friday: 07:30:00 to 17:30:00",
      "appointment_needed": "No",
      "requirements": "",
      "distribution_model": "",
      "notes": "",
      "cultures_served": []
    },
    {
      "name": "THEARC Farm",
      "address": "1801 Mississippi Ave SE Washington DC DC 20020",
      "phone": "",
      "hours": "Friday: 12:00:00 to 15:00:00",
      "appointment_needed": "No",
      "requirements": "",
      "distribution_model": "",
      "notes": "",
      "cultures_served": []
    },
    {
      "name": "Temple of Praise",
      "address": "700 Southern Avenue SE Washington DC 20032",
      "phone": "(301) 537-3445",
      "hours": "Sunday: 09:00:00 to 16:00:00",
      "appointment_needed": "No",
      "requirements": "ID,Income,Zip Code",
      "distribution_model": "",
      "notes": "",
      "cultures_served": []
    },
    {
      "name": "Tender Love & Care",
      "address": "822 Cox Ave Hyattsville MD 20783",
      "phone": "(301) 440-8990",
      "hours": "As Needed: 08:00:00 to 05:30:00",
      "appointment_needed": "No",
      "requirements": "Income",
      "distribution_model": "",
      "notes": "",
      "cultures_served": []
    },
    {
      "name": "The ARK of DC Foundation",
      "address": "1818 New York Ave. NE Washington DC 20002",
      "phone": "(771) 210-9962",
      "hours": "Monday\u2013Friday: 09:00:00 to 17:00:00",
      "appointment_needed": "No",
      "requirements": "ID,Zip Code",
      "distribution_model": "",
      "notes": "",
      "cultures_served": [
        "Central/South Asian,East African,East Asian,Eastern European,Latin American,Middle Eastern/ North African,West African"
      ]
    },
    {
      "name": "The Cardinal Cupboard",
      "address": "620 Michigan Ave NE Washington DC 20064",
      "phone": "(202) 319-5575",
      "hours": "Monday\u2013Friday: 12:00:00 to 18:00:00",
      "appointment_needed": "No",
      "requirements": "",
      "distribution_model": "",
      "notes": "",
      "cultures_served": []
    },
    {
      "name": "The Family Place",
      "address": "3309 16th St NW Washington DC DC 20010",
      "phone": "(202) 644-1125",
      "hours": "Wednesday: 10:00:00 to 17:00:00, 12:30:00 to 14:00:00; Friday: 10:00:00 to 14:00:00; Monday\u2013Tuesday: 09:00:00 to 16:00:00; Thursday: 09:00:00 to 15:00:00",
      "appointment_needed": "No",
      "requirements": "Income",
      "distribution_model": "",
      "notes": "",
      "cultures_served": []
    },
    {
      "name": "The Father McKenna Center",
      "address": "900 North Capital St NW Washington DC DC 20002",
      "phone": "(202) 842-1112",
      "hours": "Monday\u2013Tuesday, Thursday\u2013Friday: 13:30:00 to 14:30:00",
      "appointment_needed": "No",
      "requirements": "ID,Income",
      "distribution_model": "",
      "notes": "",
      "cultures_served": [
        "Central/South Asian,East African,East Asian,Eastern European,Latin American,Middle Eastern/ North African,West African"
      ]
    },
    {
      "name": "The Gourmet Angel Food Bank",
      "address": "317 N Payne Street Alexandria VA 22314",
      "phone": "(469) 237-7858",
      "hours": "Friday: 10:00:00 to 12:00:00",
      "appointment_needed": "No",
      "requirements": "",
      "distribution_model": "",
      "notes": "",
      "cultures_served": []
    },
    {
      "name": "The Holy Temple Church",
      "address": "439 12th. Street SE Washington DC 20003",
      "phone": "(202) 547-8364",
      "hours": "Wednesday: 10:00:00 to 14:00:00, 10:00:00 to 15:00:00",
      "appointment_needed": "No",
      "requirements": "ID",
      "distribution_model": "",
      "notes": "",
      "cultures_served": [
        "Central/South Asian,East African,East Asian,Eastern European,Latin American,Middle Eastern/ North African,West African"
      ]
    },
    {
      "name": "The Hope Center",
      "address": "4915 Wheeler Rd Oxon Hill MD 20745",
      "phone": "(410) 877-4444",
      "hours": "Saturday: 10:00:00 to 12:00:00",
      "appointment_needed": "No",
      "requirements": "",
      "distribution_model": "",
      "notes": "",
      "cultures_served": []
    },
    {
      "name": "The House, Inc.",
      "address": "14000 Crown Court Woodbridge VA 22193",
      "phone": "(571) 237-5860",
      "hours": "Wednesday: 15:00:00 to 18:00:00",
      "appointment_needed": "Yes",
      "requirements": "",
      "distribution_model": "",
      "notes": "",
      "cultures_served": [
        "Central/South Asian,East African,East Asian,Eastern European,Latin American,Middle Eastern/ North African,West African"
      ]
    },
    {
      "name": "The Lord's Chosen Food Pantry",
      "address": "1302 Cronson Blvd Crofton MD 21114",
      "phone": "(301) 773-7573",
      "hours": "Wednesday: 19:00:00 to 21:30:00",
      "appointment_needed": "Yes",
      "requirements": "Zip Code",
      "distribution_model": "",
      "notes": "",
      "cultures_served": [
        "East African,Latin American,West African"
      ]
    },
    {
      "name": "The Redeemed Christian Church of God - Victory Temple",
      "address": "7218 Lockport Place Lorton VA 22079",
      "phone": "(804) 625-9423",
      "hours": "Saturday: 10:00:00 to 12:00:00",
      "appointment_needed": "No",
      "requirements": "Zip Code",
      "distribution_model": "",
      "notes": "",
      "cultures_served": [
        "Central/South Asian,East African,Latin American,Middle Eastern/ North African,West African"
      ]
    },
    {
      "name": "The Salvation Army - Sherman Ave",
      "address": "3335 Sherman Ave. NW Washington DC 20010",
      "phone": "(202) 829-0100",
      "hours": "Monday, Friday: 09:30:00 to 13:30:00",
      "appointment_needed": "No",
      "requirements": "ID,Zip Code",
      "distribution_model": "",
      "notes": "",
      "cultures_served": [
        "Central/South Asian,East African,East Asian,Eastern European,Latin American,Middle Eastern/ North African,West African"
      ]
    },
    {
      "name": "The Salvation Army - Solomon G Brown",
      "address": "2300 Martin Luther King Ave SE Washington DC 20020",
      "phone": "(202) 678-9770 or9771",
      "hours": "Wednesday, Friday: 09:00:00 to 14:00:00",
      "appointment_needed": "Yes",
      "requirements": "",
      "distribution_model": "",
      "notes": "",
      "cultures_served": [
        "East African,Latin American,West African"
      ]
    },
    {
      "name": "The Sanctuary",
      "address": "5300 Crain Highway Upper Marlboro MD 20772",
      "phone": "(301) 752-0778",
      "hours": "Saturday: 10:00:00 to 12:30:00",
      "appointment_needed": "No",
      "requirements": "ID",
      "distribution_model": "",
      "notes": "",
      "cultures_served": [
        "Latin American"
      ]
    },
    {
      "name": "The St. Lucy Project",
      "address": "8426-28 Kao Circle Manassas VA 20110",
      "phone": "(703) 991-6940",
      "hours": "Wednesday: 09:00:00 to 09:00:00; Thursday: 13:00:00 to 13:00:00",
      "appointment_needed": "No",
      "requirements": "ID",
      "distribution_model": "",
      "notes": "",
      "cultures_served": [
        "Central/South Asian,East African,East Asian,Eastern European,Latin American,Middle Eastern/ North African,West African"
      ]
    },
    {
      "name": "The Upcounty Hub Inc",
      "address": "12900 Middlebrook Road Suite 1100  Germantown  MD 20874",
      "phone": "(240) 912-1068",
      "hours": "Tuesday: 14:00:00 to 15:00:00; Wednesday: 13:00:00 to 14:30:00; Thursday: 09:00:00 to 16:00:00, 11:00:00 to 13:00:00, 14:00:00 to 15:00:00; Friday: 09:00:00 to 10:30:00, 09:00:00 to 16:00:00; Monday: 09:00:00 to 16:00:00",
      "appointment_needed": "Yes",
      "requirements": "Zip Code",
      "distribution_model": "",
      "notes": "",
      "cultures_served": [
        "Central/South Asian,East African,East Asian,Eastern European,Latin American,Middle Eastern/ North African,West African"
      ]
    },
    {
      "name": "The Women's Collective",
      "address": "1818 New York Ave NE Washington DC 20020",
      "phone": "(202) 483-7003",
      "hours": "Monday\u2013Friday: 09:00:00 to 17:00:00",
      "appointment_needed": "No",
      "requirements": "",
      "distribution_model": "",
      "notes": "",
      "cultures_served": [
        "Central/South Asian,East African,Latin American,Middle Eastern/ North African,West African"
      ]
    },
    {
      "name": "This Generation Ministries",
      "address": "9470 Annapolis Rd Suite 407 Lanham MD 20706",
      "phone": "(240) 374-2901",
      "hours": "Wednesday: 13:30:00 to 15:00:00",
      "appointment_needed": "No",
      "requirements": "",
      "distribution_model": "",
      "notes": "",
      "cultures_served": [
        "East African,Latin American,West African"
      ]
    },
    {
      "name": "Thrive DC",
      "address": "1525 Newton Street NW Washington DC 20010",
      "phone": "(202) 737-9311",
      "hours": "Thursday: 10:00:00 to 12:00:00",
      "appointment_needed": "No",
      "requirements": "ID,Income,Zip Code",
      "distribution_model": "",
      "notes": "",
      "cultures_served": [
        "Central/South Asian,East Asian,Latin American,Middle Eastern/ North African,West African"
      ]
    },
    {
      "name": "Tommy's Pantry",
      "address": "630 Silver Spring Ave. Silver Spring MD 20910",
      "phone": "(202) 262-4537",
      "hours": "Saturday: 07:30:00 to 10:00:00",
      "appointment_needed": "No",
      "requirements": "",
      "distribution_model": "",
      "notes": "",
      "cultures_served": [
        "Central/South Asian,East African,East Asian,Eastern European,Latin American,Middle Eastern/ North African,West African"
      ]
    },
    {
      "name": "True Ground Housing",
      "address": "4318 N Carlin Springs Road Arlington VA 22203",
      "phone": "(571) 733-9627",
      "hours": "Monday\u2013Tuesday, Thursday: 10:00:00 to 18:00:00; Wednesday: 08:00:00 to 13:00:00; Friday: 10:00:00 to 13:00:00; Saturday: 09:00:00 to 12:00:00",
      "appointment_needed": "No",
      "requirements": "Zip Code",
      "distribution_model": "",
      "notes": "",
      "cultures_served": []
    },
    {
      "name": "Turner AME Church",
      "address": "7201 16th Place Hyattsville MD 20783",
      "phone": "(240) 417-6012",
      "hours": "Friday: 12:00:00 to 14:00:00",
      "appointment_needed": "No",
      "requirements": "",
      "distribution_model": "",
      "notes": "",
      "cultures_served": [
        "East African,Latin American,West African"
      ]
    },
    {
      "name": "Tutoring Cafe",
      "address": "6906 4th St NW Washington DC 20012",
      "phone": "(240) 601-3312",
      "hours": "Thursday: 14:30:00 to 15:30:00",
      "appointment_needed": "Yes",
      "requirements": "",
      "distribution_model": "",
      "notes": "",
      "cultures_served": [
        "East African,Latin American,Middle Eastern/ North African,West African"
      ]
    },
    {
      "name": "United Community",
      "address": "7511 Fordson Rd Alexandria VA 22306",
      "phone": "",
      "hours": "Saturday: 08:00:00 to 11:00:00",
      "appointment_needed": "No",
      "requirements": "",
      "distribution_model": "",
      "notes": "",
      "cultures_served": []
    },
    {
      "name": "United Community Ministry",
      "address": "7511 Fordson Road Alexandria VA 22306",
      "phone": "(703) 768-7106",
      "hours": "Wednesday: 14:00:00 to 17:00:00; Tuesday, Thursday: 12:00:00 to 15:00:00; Saturday: 08:00:00 to 11:00:00; Monday: 10:00:00 to 13:00:00",
      "appointment_needed": "No",
      "requirements": "ID,Income,Zip Code",
      "distribution_model": "",
      "notes": "",
      "cultures_served": [
        "Central/South Asian,East African,East Asian,Eastern European,Latin American,Middle Eastern/ North African,West African"
      ]
    },
    {
      "name": "University of District of Columbia",
      "address": "4250 Connecticut Ave NW Washington DC DC 20008",
      "phone": "(202) 603-5090",
      "hours": "Monday: 11:00:00 to 19:00:00; Tuesday, Thursday: 10:00:00 to 19:00:00; Wednesday: 14:00:00 to 19:00:00; Friday: 11:00:00 to 14:00:00",
      "appointment_needed": "No",
      "requirements": "ID",
      "distribution_model": "",
      "notes": "",
      "cultures_served": []
    },
    {
      "name": "University of Maryland College Park Food Pantry",
      "address": "7093 Preinkert Drive College Park MD 20742",
      "phone": "(301) 314-8072",
      "hours": "Monday\u2013Friday: 10:00:00 to 17:00:00",
      "appointment_needed": "Yes",
      "requirements": "ID",
      "distribution_model": "",
      "notes": "",
      "cultures_served": [
        "Central/South Asian,East African,East Asian,Eastern European,Latin American,Middle Eastern/ North African,West African"
      ]
    },
    {
      "name": "University of Shady Grove",
      "address": "9630 Gudelsky Drive Rockville MD 20850",
      "phone": "",
      "hours": "Monday: 11:00:00 to 13:00:00",
      "appointment_needed": "No",
      "requirements": "",
      "distribution_model": "",
      "notes": "",
      "cultures_served": []
    },
    {
      "name": "Urban Outreach Inc.",
      "address": "5343 C St SE  Suite 204 Washington DC 20019",
      "phone": "(202) 575-4867",
      "hours": "Saturday: 08:00:00 to 14:00:00",
      "appointment_needed": "No",
      "requirements": "ID,Income,Zip Code",
      "distribution_model": "",
      "notes": "",
      "cultures_served": [
        "East African,East Asian,Latin American,Middle Eastern/ North African,West African"
      ]
    },
    {
      "name": "Victory Christian Ministries International",
      "address": "3911 St Barnabas Road Suitland MD 20746",
      "phone": "(240) 638-6274",
      "hours": "Thursday: 12:00:00 to 13:00:00",
      "appointment_needed": "No",
      "requirements": "ID",
      "distribution_model": "",
      "notes": "",
      "cultures_served": [
        "Latin American,West African"
      ]
    },
    {
      "name": "Victory Drug Center",
      "address": "1804 Quarter Avenue Capitol Heights MD 20743",
      "phone": "(301) 735-2222",
      "hours": "Saturday: 09:00:00 to 13:00:00",
      "appointment_needed": "No",
      "requirements": "",
      "distribution_model": "",
      "notes": "",
      "cultures_served": [
        "East African,East Asian,Latin American,Middle Eastern/ North African,West African"
      ]
    },
    {
      "name": "Villages of East River",
      "address": "305 37th St SE Washington DC 20019",
      "phone": "(202) 621-1617",
      "hours": "Wednesday\u2013Thursday: 11:00:00 to 16:00:00",
      "appointment_needed": "No",
      "requirements": "",
      "distribution_model": "",
      "notes": "",
      "cultures_served": []
    },
    {
      "name": "WFCM Food Pantry",
      "address": "4511 Daly Dr Suite J Chantilly VA 20151",
      "phone": "(703) 988-9656",
      "hours": "Monday\u2013Tuesday, Thursday: 10:30:00 to 14:00:00, 16:30:00 to 19:00:00; Wednesday, Friday: 10:30:00 to 14:00:00; Saturday: 09:00:00 to 12:00:00",
      "appointment_needed": "Yes",
      "requirements": "ID,Income,Zip Code",
      "distribution_model": "",
      "notes": "",
      "cultures_served": [
        "Central/South Asian,East African,East Asian,Eastern European,Latin American,Middle Eastern/ North African,West African"
      ]
    },
    {
      "name": "Walker Memorial Baptist Church",
      "address": "2020 13th St. NW Washington DC 20009",
      "phone": "(202) 232-1120",
      "hours": "Thursday: 11:00:00 to 13:00:00; Wednesday: 11:00:00 to 14:00:00",
      "appointment_needed": "Yes",
      "requirements": "",
      "distribution_model": "",
      "notes": "",
      "cultures_served": [
        "Latin American,West African"
      ]
    },
    {
      "name": "Walker Mill Community Development Center",
      "address": "6801 Walker Mill Rd Capitol Heights MD 20743",
      "phone": "(240) 350-4056",
      "hours": "Monday: 10:00:00 to 12:30:00",
      "appointment_needed": "No",
      "requirements": "ID",
      "distribution_model": "",
      "notes": "",
      "cultures_served": [
        "East African,Latin American,West African"
      ]
    },
    {
      "name": "Ward 7 Food Center of Peace Lutheran Church",
      "address": "7 (Peace Lutheran Church) 4929 Ames St NE Washington  DC 20019",
      "phone": "(301) 367-6983",
      "hours": "Monday, Wednesday\u2013Thursday: 10:30:00 to 14:30:00; Tuesday: 10:30:00 to 14:30:00, 11:00:00 to 12:00:00",
      "appointment_needed": "Yes",
      "requirements": "Income,Zip Code",
      "distribution_model": "",
      "notes": "",
      "cultures_served": []
    },
    {
      "name": "Ward Memorial AME Church",
      "address": "241 42nd St NE Washington DC 20019",
      "phone": "",
      "hours": "Saturday: 08:00:00 to 12:00:00",
      "appointment_needed": "No",
      "requirements": "",
      "distribution_model": "",
      "notes": "",
      "cultures_served": []
    },
    {
      "name": "Washington Spanish SDA Church",
      "address": "12604 New Hampshire Avenue Silver Spring MD 20904",
      "phone": "(240) 638-7086",
      "hours": "Tuesday: 16:00:00 to 18:00:00",
      "appointment_needed": "No",
      "requirements": "ID",
      "distribution_model": "",
      "notes": "",
      "cultures_served": [
        "East African,East Asian,Latin American,West African"
      ]
    },
    {
      "name": "Washington View Apartments",
      "address": "2629 Douglass Rd SE Washington DC DC 20020",
      "phone": "(202) 621-1600",
      "hours": "Saturday: 12:00:00 to 13:00:00",
      "appointment_needed": "No",
      "requirements": "",
      "distribution_model": "",
      "notes": "",
      "cultures_served": []
    },
    {
      "name": "We Are Family",
      "address": "3335 Sherman Ave NW Washington DC 20001",
      "phone": "(202) 487-8698",
      "hours": "Saturday: 10:00:00 to 18:00:00",
      "appointment_needed": "No",
      "requirements": "",
      "distribution_model": "",
      "notes": "",
      "cultures_served": [
        "Central/South Asian,East African,East Asian,Eastern European,Latin American,Middle Eastern/ North African,West African"
      ]
    },
    {
      "name": "WeSERVE CDC",
      "address": "17948 Fraley Blvd Dumfries VA 22026",
      "phone": "(571) 781-2722",
      "hours": "Saturday: 11:00:00 to 13:00:00",
      "appointment_needed": "No",
      "requirements": "ID",
      "distribution_model": "",
      "notes": "",
      "cultures_served": [
        "East African,Latin American,Middle Eastern/ North African,West African"
      ]
    },
    {
      "name": "Wells Robertson House",
      "address": "1 Wells Ave Gaithersburg MD 20877",
      "phone": "(301) 258-6390",
      "hours": "Wednesday\u2013Sunday, As Needed: 09:00:00 to 17:00:00",
      "appointment_needed": "No",
      "requirements": "",
      "distribution_model": "",
      "notes": "",
      "cultures_served": [
        "Central/South Asian,East African,East Asian,Eastern European,Latin American,Middle Eastern/ North African,West African"
      ]
    },
    {
      "name": "Whosoever Will Christian Church",
      "address": "4514 Sellman Road Beltsville MD 20705",
      "phone": "(301) 257-2264",
      "hours": "Wednesday: 16:30:00 to 18:30:00; As Needed: As Needed to As Needed",
      "appointment_needed": "Yes",
      "requirements": "ID,Zip Code",
      "distribution_model": "",
      "notes": "",
      "cultures_served": [
        "Central/South Asian,East African,East Asian,Eastern European,Latin American,Middle Eastern/ North African,West African"
      ]
    },
    {
      "name": "William Ramsay Recreation Center",
      "address": "4850 Mark Center Dr Alexandria VA 22311",
      "phone": "",
      "hours": "Saturday: 08:30:00 to 10:30:00",
      "appointment_needed": "No",
      "requirements": "",
      "distribution_model": "",
      "notes": "",
      "cultures_served": []
    },
    {
      "name": "Willston Multicultural Center",
      "address": "6131 Willston Dr Falls Church VA 22044",
      "phone": "",
      "hours": "Saturday: 08:00:00 to 11:00:00",
      "appointment_needed": "No",
      "requirements": "",
      "distribution_model": "",
      "notes": "",
      "cultures_served": [
        "Central/South Asian,East African,East Asian,Latin American,Middle Eastern/ North African"
      ]
    },
    {
      "name": "Women Who Care Ministries",
      "address": "19640 Club House Road Suite 410 Montgomery Villlage MD 20886",
      "phone": "(301) 828-6850",
      "hours": "Thursday: 08:00:00 to 17:00:00, 10:00:00 to 16:00:00; Tuesday\u2013Wednesday, Friday: 10:00:00 to 16:00:00",
      "appointment_needed": "Yes",
      "requirements": "ID",
      "distribution_model": "",
      "notes": "",
      "cultures_served": [
        "Central/South Asian,East African,East Asian,Eastern European,Latin American,Middle Eastern/ North African"
      ]
    },
    {
      "name": "Woodbridge Church of the Nazarene",
      "address": "14001 Smoketown Road Woodbridge VA 22193",
      "phone": "(703) 670-2252",
      "hours": "Tuesday: 18:30:00 to 20:30:00",
      "appointment_needed": "No",
      "requirements": "",
      "distribution_model": "",
      "notes": "",
      "cultures_served": []
    },
    {
      "name": "Woodbridge Workers",
      "address": "13950 Jefferson Davis Highway Woodbridge VA 22193",
      "phone": "(703) 969-0197",
      "hours": "Wednesday: 09:30:00 to 10:30:00; Thursday\u2013Saturday: 11:30:00 to 12:30:00",
      "appointment_needed": "No",
      "requirements": "",
      "distribution_model": "",
      "notes": "",
      "cultures_served": [
        "Latin American,Middle Eastern/ North African"
      ]
    },
    {
      "name": "Woodland Springs Apartment",
      "address": "6617 Atwood Street District Heights MD 20747",
      "phone": "",
      "hours": "Tuesday: 09:30:00 to 11:00:00",
      "appointment_needed": "No",
      "requirements": "",
      "distribution_model": "",
      "notes": "",
      "cultures_served": [
        "East African,Latin American,West African"
      ]
    },
    {
      "name": "Woodlawn United Methodist Church",
      "address": "7730 Fordson Road Alexandria VA 22306",
      "phone": "(703) 360-3050",
      "hours": "Friday: 10:00:00 to 11:30:00",
      "appointment_needed": "No",
      "requirements": "",
      "distribution_model": "",
      "notes": "",
      "cultures_served": [
        "East African,Eastern European,Latin American,Middle Eastern/ North African,West African"
      ]
    },
    {
      "name": "Woodrow Wilson Library",
      "address": "6101 Knollwood Dr Falls Church VA 22041",
      "phone": "",
      "hours": "Tuesday: 11:00:00 to 13:00:00",
      "appointment_needed": "No",
      "requirements": "",
      "distribution_model": "",
      "notes": "",
      "cultures_served": [
        "East African,East Asian,Eastern European,Latin American"
      ]
    },
    {
      "name": "YWCA National Capital Area",
      "address": "2303 14th Street NW Suite 100 Washington DC 20009",
      "phone": "(202) 626-0700",
      "hours": "Monday\u2013Thursday: 12:00:00 to 15:00:00",
      "appointment_needed": "No",
      "requirements": "",
      "distribution_model": "",
      "notes": "",
      "cultures_served": [
        "East African,Latin American,Middle Eastern/ North African,West African"
      ]
    },
    {
      "name": "Yad Yehuda of Greater Washington",
      "address": "9601 Colesville Rd Silver Spring MD 20902",
      "phone": "(301) 842-7135",
      "hours": "Monday, Wednesday, Sunday: 07:00:00 to 22:00:00; Friday: 07:30:00 to 14:00:00; Thursday: 07:30:00 to 22:00:00; Tuesday: 07:00:00 to 10:00:00",
      "appointment_needed": "Yes",
      "requirements": "Zip Code",
      "distribution_model": "",
      "notes": "",
      "cultures_served": [
        "Eastern European,Middle Eastern/ North African"
      ]
    },
    {
      "name": "Zion Baptist Church (North Campus)",
      "address": "11005 Dayton St Silver Spring MD 20902",
      "phone": "",
      "hours": "Thursday: 12:00:00 to 15:00:00",
      "appointment_needed": "No",
      "requirements": "",
      "distribution_model": "",
      "notes": "",
      "cultures_served": []
    },
    {
      "name": "Zion Church Inc.",
      "address": "8829 Greenbelt Rd  Greenbelt MD 20770",
      "phone": "(301) 633-9592",
      "hours": "Saturday: 08:00:00 to 12:00:00",
      "appointment_needed": "No",
      "requirements": "Zip Code",
      "distribution_model": "",
      "notes": "",
      "cultures_served": [
        "East African,Latin American,West African"
      ]
    }
  ]
}